SALE TYPE,SOLD DATE,PROPERTY TYPE,ADDRESS,CITY,STATE,ZIP,PRICE,BEDS,BATHS,LOCATION,SQUARE FEET,LOT SIZE,YEAR BUILT,DAYS ON MARKET,$/SQUARE FEET,HOA/MONTH,STATUS,NEXT OPEN HOUSE START TIME,NEXT OPEN HOUSE END TIME,URL (SEE http://www.redfin.com/buy-a-home/comparative-market-analysis FOR INFO ON PRICING),SOURCE,MLS#,FAVORITE,INTERESTED,LATITUDE,LONGITUDE
MLS Listing,,Single Family Residential,712 Dryden Dr,Baltimore,MD,21229,339000,5,3.5,Hunting Ridge,2704,7492,1925,1,125,,Active,,,http://www.redfin.com/MD/Baltimore/712-Dryden-Dr-21229/home/11219149,MRIS,BA10234086,N,Y,39.296506,-76.6984929
MLS Listing,,Townhouse,132 Clement St,Baltimore,MD,21230,284990,2,2.0,Federal Hill,1128,,1900,6,253,,Active,,,http://www.redfin.com/MD/Baltimore/132-E-Clement-St-21230/home/11016181,MRIS,BA10225072,N,Y,39.2738552,-76.6108199
MLS Listing,,Townhouse,123 Burnett St,Baltimore,MD,21230,274999,2,2.0,Federal Hill,1384,,1898,26,199,,Active,,,http://www.redfin.com/MD/Baltimore/123-Burnett-St-21230/home/11010146,MRIS,BA10205742,N,Y,39.2740106,-76.6167269
MLS Listing,,Townhouse,1342 Towson St,Baltimore,MD,21230,435000,3,4.5,Locust Point,2250,871,2007,46,193,,Active,,,http://www.redfin.com/MD/Baltimore/1342-Towson-St-21230/home/11024572,MRIS,BA10188394,N,Y,39.270551,-76.591506
MLS Listing,,Townhouse,124 Hamburg St W,Baltimore,MD,21230,199000,2,1.0,Federal Hill,1190,,1875,61,167,,Active,,,http://www.redfin.com/MD/Baltimore/124-W-Hamburg-St-21230/home/11008433,MRIS,BA10175371,N,Y,39.2778944,-76.6165068
MLS Listing,,Condo/Co-op,657 Washington Blvd Unit B,Baltimore,MD,21230,329000,2,2.5,Ridleys Delight,1454,,2005,70,226,300,Active,,,http://www.redfin.com/MD/Baltimore/657-Washington-Blvd-21230/unit-B/home/11223435,MRIS,BA10166115,N,Y,39.2837969,-76.6252511
MLS Listing,,Townhouse,3104 Elliott St,Baltimore,MD,21224,325000,3,2.5,Canton,2006,,1900,83,162,,Active,,,http://www.redfin.com/MD/Baltimore/3104-Elliott-St-21224/home/10733885,MRIS,BA10156306,N,Y,39.279459,-76.5722207
Redfin Data,,Single Family Residential,523 Nottingham Rd,Baltimore,MD,21229,415000,5,2.5,Baltimore,2487,17197,1913,7,167,,Pre On-Market,,,http://www.redfin.com/MD/Baltimore/523-Nottingham-Rd-21229/home/11220493,Coming Soon,12572,N,Y,39.291024,-76.6996261
Redfin Data,,Single Family Residential,510 Old Orchard Rd,Baltimore,MD,21229,424900,4,2.5,Baltimore,3438,22189,1925,14,124,,Pre On-Market,,,http://www.redfin.com/MD/Baltimore/510-Old-Orchard-Rd-21229/home/11220028,Coming Soon,12034,N,Y,39.2901259,-76.7016486
MLS Listing,,Townhouse,11 Bernice Ave,Baltimore,MD,21229,70000,3,1.0,N/a,1280,,1940,1,55,,Active,,,http://www.redfin.com/MD/Baltimore/11-N-Bernice-Ave-21229/home/10992962,MRIS,BA10234281,N,Y,39.2863272,-76.6695272
MLS Listing,,Townhouse,306 Conkling St S,Baltimore,MD,21224,169900,3,2.0,Highlandtown,875,,1920,1,194,,Active,,,http://www.redfin.com/MD/Baltimore/306-S-Conkling-St-21224/home/11080937,MRIS,BA10234272,N,Y,39.2881713,-76.5674377
MLS Listing,,Single Family Residential,5717 Trumps Mill Rd,Baltimore,MD,21206,260000,3,2.5,Kenwood Park,1464,12782,1977,1,178,,Active,,,http://www.redfin.com/MD/Baltimore/5717-Trumps-Mill-Rd-21206/home/9417639,MRIS,BC10233137,N,Y,39.3505612,-76.5021902
MLS Listing,,Vacant Land,Murray Hill Rd,Baltimore,MD,21212,499888,,,Murray Hill,,18731,,1,,6,Active,,,http://www.redfin.com/MD/Baltimore/Murray-Hill-Rd-21212/home/9661187,MRIS,BC10234255,N,Y,39.386046,-76.625969
MLS Listing,,Single Family Residential,6401 Murray Hill Rd,Baltimore,MD,21212,1299000,6,5.0,Murray Hill,3862,35284,1943,1,336,6,Active,,,http://www.redfin.com/MD/Baltimore/6401-Murray-Hill-Rd-21212/home/9662990,MRIS,BC10234220,N,Y,39.383352,-76.628532
MLS Listing,,Townhouse,7039 Baltimore St,Baltimore,MD,21224,149900,3,2.0,Eastwood,896,1616,1954,1,167,,Active,,,http://www.redfin.com/MD/Baltimore/7039-E-Baltimore-St-21224/home/9333255,MRIS,BC10234192,N,Y,39.2934039,-76.5284824
MLS Listing,,Single Family Residential,426 Calvin Ave,Baltimore,MD,21218,189000,4,2.5,None3,1476,2250,1900,1,128,,Active,,,http://www.redfin.com/MD/Baltimore/426-Calvin-Ave-21218/home/10853192,MRIS,BA10230972,N,Y,39.3303563,-76.6097877
MLS Listing,,Single Family Residential,5 Millbrook Rd,Baltimore,MD,21218,869000,5,4.0,Guilford,3351,10171,1925,1,259,20,Active,May-9-2018 01:00 PM,May-9-2018 03:00 PM,http://www.redfin.com/MD/Baltimore/5-Millbrook-Rd-21218/home/11209473,MRIS,BA10234157,N,Y,39.3405398,-76.6191358
MLS Listing,,Single Family Residential,3405 Royston Ave,Baltimore,MD,21214,259950,4,3.0,Westfield,1301,5689,1941,1,200,,Active,,,http://www.redfin.com/MD/Baltimore/3405-Royston-Ave-21214/home/11131182,MRIS,BA10234147,N,Y,39.3556803,-76.5484785
MLS Listing,,Townhouse,5819 Plumer Ave,Baltimore,MD,21206,89900,2,1.5,Baltimore,1350,3856,1956,1,67,,Active,,,http://www.redfin.com/MD/Baltimore/5819-Plumer-Ave-21206/home/11098605,MRIS,BA10234142,N,Y,39.3434222,-76.5312684
MLS Listing,,Townhouse,2433 Eastern Ave,Baltimore,MD,21224,315000,2,1.5,Canton,1128,,1915,1,279,,Active,,,http://www.redfin.com/MD/Baltimore/2433-Eastern-Ave-21224/home/10729102,MRIS,BA10234128,N,Y,39.2858909,-76.5816593
MLS Listing,,Townhouse,1602 Ralworth Rd,Baltimore,MD,21218,135000,3,2.0,Northwood,1240,2178,1941,1,109,,Active,,,http://www.redfin.com/MD/Baltimore/1602-Ralworth-Rd-21218/home/10827147,MRIS,BA10234126,N,Y,39.3395889,-76.591224
MLS Listing,,Townhouse,534 Brunswick St,Baltimore,MD,21223,100000,3,1.0,Mill Hill,1200,,1920,1,83,,Active,,,http://www.redfin.com/MD/Baltimore/534-Brunswick-St-21223/home/10978169,MRIS,BA10234113,N,Y,39.2785033,-76.6591279
MLS Listing,,Townhouse,1231 Curley St,Baltimore,MD,21213,40000,2,1.0,Lakewood/fort Worthington,950,,1927,1,42,,Active,,,http://www.redfin.com/MD/Baltimore/1231-N-Curley-St-21213/home/10798833,MRIS,BA10234108,N,Y,39.305738,-76.5761659
MLS Listing,,Single Family Residential,4008 Bonner NW,Baltimore,MD,21216,135000,3,2.0,Forrest Park Community,,,1935,1,,,Active,,,http://www.redfin.com/MD/Baltimore/4008-Bonner-Rd-21216/home/10882859,MRIS,BA10234107,N,Y,39.3223561,-76.6851123
MLS Listing,,Condo/Co-op,2901 Boston St #608,Baltimore,MD,21224,620000,2,2.0,Canton,1572,,1985,1,394,724,Active,,,http://www.redfin.com/MD/Baltimore/2901-Boston-St-21224/unit-608/home/10734387,MRIS,BA10234105,N,Y,39.2778359,-76.5748761
MLS Listing,,Single Family Residential,6209 Pleasant View Ave,Baltimore,MD,21209,400000,3,2.0,Pleasant View,1494,7500,1962,1,268,,Active,May-12-2018 01:00 PM,May-12-2018 03:00 PM,http://www.redfin.com/MD/Baltimore/6209-Pleasant-View-Ave-21209/home/9526954,MRIS,BC10232517,N,Y,39.3807911,-76.6537475
MLS Listing,,Townhouse,3915 Southern Ave,Baltimore,MD,21206,110000,2,1.0,Gardenville,1245,3485,1950,1,88,,Active,,,http://www.redfin.com/MD/Baltimore/3915-Southern-Ave-21206/home/11121616,MRIS,BA10234090,N,Y,39.3373881,-76.5602985
MLS Listing,,Townhouse,3943 Canterbury Rd,Baltimore,MD,21218,585000,4,4.0,Tuscany/canterbury,3284,3485,1920,1,178,,Active,,,http://www.redfin.com/MD/Baltimore/3943-Canterbury-Rd-21218/home/10836489,MRIS,BA10234083,N,Y,39.338128,-76.620394
MLS Listing,,Condo/Co-op,113 Cross Keys Rd Unit R113F,Baltimore,MD,21210,167000,2,2.0,Cross Keys,1167,,1969,1,143,430,Active,,,http://www.redfin.com/MD/Baltimore/113-Cross-Keys-Rd-21210/unit-R113F/home/11162304,MRIS,BA10234075,N,Y,39.3595405,-76.6466293
MLS Listing,,Townhouse,728 Macon St S,Baltimore,MD,21224,299900,2,2.5,O'donnell Square,1568,915,2013,1,191,56,Active,,,http://www.redfin.com/MD/Baltimore/728-S-Macon-St-21224/home/59254450,MRIS,BA10232549,N,Y,39.2846726,-76.5573484
MLS Listing,,Townhouse,2104 Parksley Ave,Baltimore,MD,21230,80000,2,1.0,Morrell Park,840,,1951,1,95,,Active,,,http://www.redfin.com/MD/Baltimore/2104-Parksley-Ave-21230/home/11038669,MRIS,BA10233997,N,Y,39.2636059,-76.6506055
MLS Listing,,Townhouse,202 Grundy St,Baltimore,MD,21224,59900,1,1.0,Highlandtown,832,832,1920,1,72,,Active,,,http://www.redfin.com/MD/Baltimore/202-Grundy-St-21224/home/11080345,MRIS,BA10233995,N,Y,39.2900538,-76.5637445
MLS Listing,,Townhouse,5416 Sagra Rd,Baltimore,MD,21239,159900,3,1.0,Baltimore City,1605,,1952,1,100,,Active,,,http://www.redfin.com/MD/Baltimore/5416-Sagra-Rd-21239/home/11151442,MRIS,BA10233895,N,Y,39.3553424,-76.5927046
MLS Listing,,Townhouse,3009 Walbrook Ave,Baltimore,MD,21216,10000,3,2.0,Walbrook,,,1926,1,,,Active,,,http://www.redfin.com/MD/Baltimore/3009-Walbrook-Ave-21216/home/10886812,MRIS,BA10233892,N,Y,39.309933,-76.6679429
MLS Listing,,Townhouse,2910 Ellicott Driveway,Baltimore,MD,21216,5000,3,2.0,Winchester,1176,,1920,1,4,,Active,,,http://www.redfin.com/MD/Baltimore/2910-Ellicott-Dr-21216/home/10943001,MRIS,BA10233884,N,Y,39.302264,-76.6662016
MLS Listing,,Townhouse,1313 Lombard St W,Baltimore,MD,21223,75000,3,1.5,Harlem Park,2106,,1880,1,36,,Active,,,http://www.redfin.com/MD/Baltimore/1313-W-Lombard-St-21223/home/10966586,MRIS,BA10233874,N,Y,39.286327,-76.6385073
MLS Listing,,Townhouse,510 S Bouldin St,Baltimore,MD,21224,185000,3,1.0,Baltimore City,1225,,1920,1,151,,Active,,,http://www.redfin.com/MD/Baltimore/510-S-Bouldin-St-21224/home/11074764,MRIS,BA10233866,N,Y,39.2858818,-76.5709009
MLS Listing,,Townhouse,1808 Lexington St,Baltimore,MD,21223,5000,3,1.0,Franklin Square,,,1920,1,,,Active,,,http://www.redfin.com/MD/Baltimore/1808-W-Lexington-St-21223/home/10987718,MRIS,BA10233808,N,Y,39.2907847,-76.6460664
MLS Listing,,Townhouse,908 Conkling St,Baltimore,MD,21224,269900,2,2.0,Canton,1400,871,1913,1,193,,Active,,,http://www.redfin.com/MD/Baltimore/908-S-Conkling-St-21224/home/11072616,MRIS,BA10233792,N,Y,39.2823003,-76.5671443
MLS Listing,,Townhouse,1800 Charles St,Baltimore,MD,21230,350000,2,3.0,Federal Hill,1204,,1900,1,291,,Active,,,http://www.redfin.com/MD/Baltimore/1800-S-Charles-St-21230/home/11012368,MRIS,BA10233793,N,Y,39.2691925,-76.6140696
MLS Listing,,Townhouse,1612 Jackson St,Baltimore,MD,21230,309900,2,1.5,Riverside Park,1150,,1900,1,269,,Active,May-12-2018 12:00 PM,May-12-2018 02:00 PM,http://www.redfin.com/MD/Baltimore/1612-Jackson-St-21230/home/11020257,MRIS,BA10233788,N,Y,39.2715885,-76.6052239
MLS Listing,,Condo/Co-op,6350 Red Cedar Pl #213,Baltimore,MD,21209,179900,2,2.0,Heather Ridge,1433,,1980,1,126,353,Active,,,http://www.redfin.com/MD/Baltimore/6350-Red-Cedar-Pl-21209/unit-213/home/11176094,MRIS,BA10233782,N,Y,39.3670499,-76.6870205
MLS Listing,,Townhouse,1720 Calhoun St,Baltimore,MD,21217,5000,3,1.0,Sandtown-winchester,,,1920,1,,,Active,,,http://www.redfin.com/MD/Baltimore/1720-N-Calhoun-St-21217/home/10893948,MRIS,BA10233775,N,Y,39.308326,-76.644256
MLS Listing,,Townhouse,617 Fort Ave,Baltimore,MD,21230,343900,2,2.5,Federal Hill,1360,,1900,1,253,,Active,,,http://www.redfin.com/MD/Baltimore/617-E-Fort-Ave-21230/home/11021405,MRIS,BA10233762,N,Y,39.2726434,-76.6047043
MLS Listing,,Townhouse,309 Franklintown Rd,Baltimore,MD,21223,1000,3,1.0,Shipley Hill,,,1900,1,,,Active,,,http://www.redfin.com/MD/Baltimore/309-S-Franklintown-Rd-21223/home/10974966,MRIS,BA10233758,N,Y,39.2833619,-76.657318
MLS Listing,,Townhouse,2 Willwood Ct,Baltimore,MD,21209,329900,2,3.5,Greenspring East,1852,3824,1993,1,178,31,Active,,,http://www.redfin.com/MD/Baltimore/2-Willwood-Ct-21209/home/9550034,MRIS,BC10233757,N,Y,39.387502,-76.684335
MLS Listing,,Townhouse,1631 Federal St,Baltimore,MD,21213,2500,3,1.0,Baltimore City,,,1915,1,,,Active,,,http://www.redfin.com/MD/Baltimore/1631-Federal-St-21213/home/10783996,MRIS,BA10233755,N,Y,39.3083079,-76.595508
MLS Listing,,Townhouse,1555 Cole St,Baltimore,MD,21223,2500,1,1.0,Pigtown,,,1915,1,,,Active,,,http://www.redfin.com/MD/Baltimore/1555-Cole-St-21223/home/10963991,MRIS,BA10233753,N,Y,39.2821103,-76.641824
MLS Listing,,Townhouse,770 Grantley St N,Baltimore,MD,21229,149900,3,3.0,Edmondson Village,1710,,1924,1,88,,Active,,,http://www.redfin.com/MD/Baltimore/770-N-Grantley-St-21229/home/10940663,MRIS,BA10233741,N,Y,39.2969986,-76.6759784
MLS Listing,,Vacant Land,2810 Wisteria Ave,Baltimore,MD,21214,10000,,,Hamilton Hills,,7840,,1,,,Active,,,http://www.redfin.com/MD/Baltimore/2810-Wisteria-Ave-21214/home/11186637,MRIS,BA10233722,N,Y,39.3542113,-76.5625738
MLS Listing,,Vacant Land,2808 Wisteria Ave,Baltimore,MD,21214,10000,,,Hamilton Hills,,7836,,1,,,Active,,,http://www.redfin.com/MD/Baltimore/2808-Wisteria-Ave-21214/home/11186636,MRIS,BA10233706,N,Y,39.3543315,-76.5626972
MLS Listing,,Townhouse,528 Lanvale St,Baltimore,MD,21217,5000,3,1.0,Upton,1460,,1920,1,3,,Active,,,http://www.redfin.com/MD/Baltimore/528-W-Lanvale-St-21217/home/10950471,MRIS,BA10233691,N,Y,39.3014929,-76.6293683
MLS Listing,,Townhouse,4354 Nicholas Ave,Baltimore,MD,21206,89900,2,2.0,Baltimore,812,8712,1950,1,111,,Active,,,http://www.redfin.com/MD/Baltimore/4354-Nicholas-Ave-21206/home/11115283,MRIS,BA10233693,N,Y,39.3270948,-76.5610923
MLS Listing,,Townhouse,3203 Presstman St,Baltimore,MD,21216,15000,3,1.0,Rosemont,1140,,1926,1,13,,Active,,,http://www.redfin.com/MD/Baltimore/3203-Presstman-St-21216/home/10942372,MRIS,BA10233674,N,Y,39.3042532,-76.670858
MLS Listing,,Townhouse,133 Hopkins Rd,Baltimore,MD,21212,310000,2,2.0,Rodgers Forge,1216,2071,1951,1,255,,Active,,,http://www.redfin.com/MD/Baltimore/133-Hopkins-Rd-21212/home/9640384,MRIS,BC10233660,N,Y,39.3764414,-76.6159598
MLS Listing,,Single Family Residential,100 Woodbrook Ln,Baltimore,MD,21212,2285000,4,4.0,Spotswood,4400,21038,2004,1,519,6,Active,May-9-2018 12:00 PM,May-9-2018 03:00 PM,http://www.redfin.com/MD/Baltimore/100-Woodbrook-Ln-21212/home/9701848,MRIS,BC10233663,N,Y,39.3797066,-76.6309373
MLS Listing,,Townhouse,323 Norris St,Baltimore,MD,21223,5000,3,1.0,New Southwest/mount Clare Junction,,,1900,1,,,Active,,,http://www.redfin.com/MD/Baltimore/323-S-Norris-St-21223/home/10964823,MRIS,BA10233633,N,Y,39.2837917,-76.639878
MLS Listing,,Single Family Residential,5011 Holder Ave,Baltimore,MD,21214,267451,4,2.0,Hamilton,2910,7553,1924,1,92,,Active,May-12-2018 11:00 AM,May-12-2018 01:00 PM,http://www.redfin.com/MD/Baltimore/5011-Holder-Ave-21214/home/11126211,MRIS,BA10233625,N,Y,39.3448926,-76.559999
MLS Listing,,Single Family Residential,5306 Dew Garth,Baltimore,MD,21206,255000,3,2.0,Blackthorn,1072,28865,1963,1,238,,Active,,,http://www.redfin.com/MD/Baltimore/5306-Dew-Garth-21206/home/9400669,MRIS,BC10233621,N,Y,39.3369999,-76.517503
MLS Listing,,Townhouse,2661 Saint Benedict St,Baltimore,MD,21223,5000,3,1.0,Millhill,1144,,1920,1,4,,Active,,,http://www.redfin.com/MD/Baltimore/2661-Saint-Benedict-St-21223/home/10978069,MRIS,BA10233603,N,Y,39.278887,-76.657764
MLS Listing,,Townhouse,2923 Violet Ave,Baltimore,MD,21215,20000,3,1.0,Park Circle,,1748,1920,1,,,Active,,,http://www.redfin.com/MD/Baltimore/2923-Violet-Ave-21215/home/10916008,MRIS,BA10233584,N,Y,39.3291119,-76.6628275
MLS Listing,,Single Family Residential,315 Gittings Ave,Baltimore,MD,21212,379000,3,2.0,Cedarcroft,1350,11247,1920,1,281,8,Active,May-13-2018 01:00 PM,May-13-2018 03:00 PM,http://www.redfin.com/MD/Baltimore/315-Gittings-Ave-21212/home/11211292,MRIS,BA10233556,N,Y,39.3707527,-76.6133588
MLS Listing,,Townhouse,726 Patterson Park Ave N,Baltimore,MD,21205,212988,3,2.5,Mcelderry Park,1090,,1920,1,195,,Active,May-12-2018 11:00 AM,May-12-2018 01:00 PM,http://www.redfin.com/MD/Baltimore/726-N-Patterson-Park-Ave-21205/home/10770068,MRIS,BA10233550,N,Y,39.299286,-76.58543
MLS Listing,,Single Family Residential,3615 Howard Park Ave,Baltimore,MD,21207,199900,3,1.5,Howard Park,1404,8965,1924,1,142,,Active,,,http://www.redfin.com/MD/Baltimore/3615-Howard-Park-Ave-21207/home/11214899,MRIS,BA10233532,N,Y,39.3336473,-76.6975591
MLS Listing,,Townhouse,1402 Steuart St,Baltimore,MD,21230,469900,3,3.0,Locust Point,2252,1002,2005,1,209,59,Active,,,http://www.redfin.com/MD/Baltimore/1402-Steuart-St-21230/home/11891880,MRIS,BA10233524,N,Y,39.2688905,-76.5892887
MLS Listing,,Townhouse,2219 Orleans St,Baltimore,MD,21231,152000,3,2.0,Patterson Park,1380,,1910,1,110,,Active,,,http://www.redfin.com/MD/Baltimore/2219-Orleans-St-21231/home/10756623,MRIS,BA10233519,N,Y,39.2952889,-76.585792
MLS Listing,,Single Family Residential,5105 Falls Road Ter,Baltimore,MD,21210,649000,5,3.5,Roland Park,2656,10933,1916,1,244,2,Active,May-9-2018 12:00 PM,May-9-2018 02:30 PM,http://www.redfin.com/MD/Baltimore/5105-Falls-Road-Ter-21210/home/11163070,MRIS,BA10233520,N,Y,39.35592,-76.643676
MLS Listing,,Townhouse,600 Montford Ave,Baltimore,MD,21224,359900,3,2.0,Canton,1920,735,1920,1,187,,Active,,,http://www.redfin.com/MD/Baltimore/600-S-Montford-Ave-21224/home/10728738,MRIS,BA10232555,N,Y,39.2848765,-76.5830363
MLS Listing,,Townhouse,1013 Witherspoon Rd,Baltimore,MD,21212,149900,3,2.0,Cameron Village,1008,741,1949,1,149,,Active,,,http://www.redfin.com/MD/Baltimore/1013-Witherspoon-Rd-21212/home/11198980,MRIS,BA10233486,N,Y,39.3580163,-76.5996259
MLS Listing,,Townhouse,1623 Westwood Ave,Baltimore,MD,21217,20000,3,1.0,Druid Heights,,,1920,1,,,Active,,,http://www.redfin.com/MD/Baltimore/1623-Westwood-Ave-21217/home/10893365,MRIS,BA10233465,N,Y,39.3090001,-76.6439447
MLS Listing,,Townhouse,1621 Westwood Ave,Baltimore,MD,21217,20000,3,1.0,Druid Heights,,,1920,1,,,Active,,,http://www.redfin.com/MD/Baltimore/1621-Westwood-Ave-21217/home/10893363,MRIS,BA10233462,N,Y,39.3090373,-76.6439221
MLS Listing,,Single Family Residential,213 Oakdale Rd,Baltimore,MD,21210,700000,7,4.5,Roland Park,3847,8245,1900,1,182,,Active,May-9-2018 11:30 AM,May-9-2018 02:00 PM,http://www.redfin.com/MD/Baltimore/213-Oakdale-Rd-21210/home/11158732,MRIS,BA10229080,N,Y,39.3489668,-76.6314985
MLS Listing,,Townhouse,3428 Mondawmin Ave,Baltimore,MD,21216,149900,3,2.0,Hanlon Park,1800,1800,1920,1,83,,Active,May-13-2018 01:00 PM,May-13-2018 03:00 PM,http://www.redfin.com/MD/Baltimore/3428-Mondawmin-Ave-21216/home/10911193,MRIS,BA10232226,N,Y,39.3154009,-76.6756899
MLS Listing,,Townhouse,431 Dallas St S,Baltimore,MD,21231,258000,3,1.0,Fells Point,1707,,1870,1,151,,Active,,,http://www.redfin.com/MD/Baltimore/431-S-Dallas-St-21231/home/10751615,MRIS,BA10228168,N,Y,39.2857878,-76.5959471
MLS Listing,,Townhouse,909 Lake Ave,Baltimore,MD,21212,310000,3,2.0,Baltimore,1200,,1947,1,258,,Active,,,http://www.redfin.com/MD/Baltimore/909-E-Lake-Ave-21212/home/11201026,MRIS,BA10233441,N,Y,39.3666391,-76.6030057
MLS Listing,,Townhouse,4202 Bonner Rd,Baltimore,MD,21216,64500,3,1.5,Windsor Hills,1080,2118,1956,1,60,,Active,,,http://www.redfin.com/MD/Baltimore/4202-Bonner-Rd-21216/home/11217059,MRIS,BA10233436,N,Y,39.321731,-76.68769
MLS Listing,,Single Family Residential,4409 Kathland Ave,Baltimore,MD,21207,249995,4,1.5,Howard Park,1810,7500,1923,1,138,,Active,,,http://www.redfin.com/MD/Baltimore/4409-Kathland-Ave-21207/home/11216749,MRIS,BA10233430,N,Y,39.3266308,-76.6940331
MLS Listing,,Townhouse,2019 Barclay St,Baltimore,MD,21218,229900,2,2.5,Baltimore City,,,1920,1,,,Active,,,http://www.redfin.com/MD/Baltimore/2019-Barclay-St-21218/home/10845225,MRIS,BA10233404,N,Y,39.3131569,-76.61076
MLS Listing,,Townhouse,1105 Ellwood Ave,Baltimore,MD,21224,389900,3,2.5,Canton,1915,1002,1920,1,204,,Active,,,http://www.redfin.com/MD/Baltimore/1105-S-Ellwood-Ave-21224/home/10733855,MRIS,BA10233357,N,Y,39.279885,-76.5723816
MLS Listing,,Townhouse,807 Mchenry St,Baltimore,MD,21230,349900,3,2.5,Camden Crossing,2000,1786,2006,1,175,75,Active,,,http://www.redfin.com/MD/Baltimore/807-McHenry-St-21230/home/23462247,MRIS,BA10233322,N,Y,39.2847166,-76.6294728
MLS Listing,,Townhouse,1127 Ward St,Baltimore,MD,21230,40000,2,1.0,West Baltimore,672,1307,1898,1,60,,Active,,,http://www.redfin.com/MD/Baltimore/1127-Ward-St-21230/home/10997855,MRIS,BA10233302,N,Y,39.2818556,-76.6326176
MLS Listing,,Townhouse,437 Orchard St,Baltimore,MD,21201,155000,2,2.0,Seton Hill,979,,1915,1,158,,Active,,,http://www.redfin.com/MD/Baltimore/437-Orchard-St-21201/home/10833401,MRIS,BA10233256,N,Y,39.2981141,-76.62279
MLS Listing,,Townhouse,4106 Amos Ave,Baltimore,MD,21215,119979,3,1.5,Northwest,960,,1955,1,125,,Active,,,http://www.redfin.com/MD/Baltimore/4106-Amos-Ave-21215/home/11213201,MRIS,BA10233225,N,Y,39.3534068,-76.6994119
MLS Listing,,Single Family Residential,2609 Halcyon Ave,Baltimore,MD,21214,50000,4,1.0,Lauraville Historic District,2076,7496,1922,1,24,,Active,,,http://www.redfin.com/MD/Baltimore/2609-Halcyon-Ave-21214/home/10419078,MRIS,BA10233211,N,Y,39.3471526,-76.5718705
MLS Listing,,Townhouse,622 Payson St S,Baltimore,MD,21223,15000,3,1.0,Carrollton Ridge,,,1920,1,,,Active,,,http://www.redfin.com/MD/Baltimore/622-S-Payson-St-21223/home/10982773,MRIS,BA10233129,N,Y,39.280234,-76.647248
MLS Listing,,Townhouse,3541 Newland Rd,Baltimore,MD,21218,389000,5,2.0,Guilford,2190,3216,1917,1,178,7,Active,May-9-2018 12:00 PM,May-9-2018 02:30 PM,http://www.redfin.com/MD/Baltimore/3541-Newland-Rd-21218/home/10851752,MRIS,BA10233070,N,Y,39.3323862,-76.6103347
MLS Listing,,Single Family Residential,3509 Ingleside Ave,Baltimore,MD,21215,30000,3,2.0,Pimlico Good Neighbors,,9801,1934,1,,,Active,,,http://www.redfin.com/MD/Baltimore/3509-Ingleside-Ave-21215/home/11167447,MRIS,BA10233077,N,Y,39.3514945,-76.6818089
MLS Listing,,Townhouse,311 Hamburg St E,Baltimore,MD,21230,325000,2,1.0,Federal Hill,988,4356,1880,1,329,,Active,,,http://www.redfin.com/MD/Baltimore/311-E-Hamburg-St-21230/home/11015297,MRIS,BA10233055,N,Y,39.278356,-76.6085609
MLS Listing,,Townhouse,3022 Elliott St,Baltimore,MD,21224,1190000,3,4.0,Canton,2850,,2017,1,418,,Active,,,http://www.redfin.com/MD/Baltimore/3022-Elliott-St-21224/home/144207865,MRIS,BA10233028,N,Y,39.2792626,-76.5730241
MLS Listing,,Townhouse,2755 Riggs Ave,Baltimore,MD,21216,7500,2,1.0,Mosher,1518,,1920,1,5,,Active,,,http://www.redfin.com/MD/Baltimore/2755-Riggs-Ave-21216/home/10947414,MRIS,BA10233023,N,Y,39.300096,-76.663272
MLS Listing,,Townhouse,5428 Fairlawn Ave,Baltimore,MD,21215,124900,3,2.0,Woodmere,1178,,1947,1,106,,Active,,,http://www.redfin.com/MD/Baltimore/5428-Fairlawn-Ave-21215/home/11213385,MRIS,BA10233025,N,Y,39.345794,-76.690581
MLS Listing,,Townhouse,4823 Bowland Ave,Baltimore,MD,21206,95500,3,1.0,Parkside,1152,1742,1960,1,83,,Active,,,http://www.redfin.com/MD/Baltimore/4823-Bowland-Ave-21206/home/11100400,MRIS,BA10232991,N,Y,39.3189135,-76.5501534
MLS Listing,,Townhouse,3805 Brooklyn Ave,Baltimore,MD,21225,20000,3,1.0,Brooklyn,1080,1800,1938,1,19,,Active,,,http://www.redfin.com/MD/Baltimore/3805-Brooklyn-Ave-21225/home/11051441,MRIS,BA10232951,N,Y,39.2335961,-76.6009575
MLS Listing,,Townhouse,3821 Fairview Ave,Baltimore,MD,21216,109900,4,1.5,Forest Park,1584,,1930,1,69,,Active,,,http://www.redfin.com/MD/Baltimore/3821-Fairview-Ave-21216/home/11855040,MRIS,BA10230623,N,Y,39.323669,-76.682883
MLS Listing,,Townhouse,1732 Fleet St,Baltimore,MD,21231,189900,2,1.0,Fells Point,1489,131,1900,1,128,,Active,,,http://www.redfin.com/MD/Baltimore/1732-Fleet-St-21231/home/10744822,MRIS,BA10232937,N,Y,39.284818,-76.592077
MLS Listing,,Single Family Residential,8 Hadley Square North,Baltimore,MD,21218,439900,3,3.0,Guilford,1785,4600,1925,1,246,,Active,May-13-2018 11:30 AM,May-13-2018 01:30 PM,http://www.redfin.com/MD/Baltimore/8-Hadley-Sq-N-21218/home/10839162,MRIS,BA10232149,N,Y,39.3369458,-76.6166535
MLS Listing,,Townhouse,848 Powers St,Baltimore,MD,21211,239000,3,1.5,Hampden,1204,,1900,1,199,,Active,,,http://www.redfin.com/MD/Baltimore/848-Powers-St-21211/home/10871734,MRIS,BA10232926,N,Y,39.32943,-76.6308987
MLS Listing,,Townhouse,6605 Walnutwood Cir,Baltimore,MD,21212,499000,4,3.5,Charlesbrooke At Pinehu,2211,3052,1977,1,226,205,Active,,,http://www.redfin.com/MD/Baltimore/6605-Walnutwood-Cir-21212/home/9675764,MRIS,BC10232908,N,Y,39.3748837,-76.6220678
MLS Listing,,Condo/Co-op,230 Stony Run Ln Unit 3F,Baltimore,MD,21210,255000,2,2.0,Gardens Of Guilford,1510,,1924,1,169,660,Active,,,http://www.redfin.com/MD/Baltimore/230-Stony-Run-Ln-21210/unit-3F/home/10837405,MRIS,BA10232901,N,Y,39.3380062,-76.6231702
MLS Listing,,Townhouse,2421 Christian St,Baltimore,MD,21223,5000,3,1.0,Millhill,1248,,1920,1,4,,Active,,,http://www.redfin.com/MD/Baltimore/2421-Christian-St-21223/home/10977673,MRIS,BA10232869,N,Y,39.2799257,-76.654564
MLS Listing,,Single Family Residential,4 Saint Georges Rd,Baltimore,MD,21210,1150000,12,5.0,Chatham,7561,35558,1881,1,152,18,Active,,,http://www.redfin.com/MD/Baltimore/4-Saint-Georges-Rd-21210/home/11160548,MRIS,BA10232856,N,Y,39.3652496,-76.6264268
MLS Listing,,Townhouse,3208 Hudson St,Baltimore,MD,21224,549000,3,2.5,Canton,2299,1600,1913,1,239,,Active,,,http://www.redfin.com/MD/Baltimore/3208-Hudson-St-21224/home/11071489,MRIS,BA10232852,N,Y,39.2825822,-76.5709143
MLS Listing,,Townhouse,1122 Paca St,Baltimore,MD,21230,219900,2,2.5,Washington Village,1232,,1900,1,178,,Active,,,http://www.redfin.com/MD/Baltimore/1122-S-Paca-St-21230/home/11003536,MRIS,BA10232827,N,Y,39.278881,-76.6276091
MLS Listing,,Townhouse,4101 Cold Spring Ln W,Baltimore,MD,21215,174900,4,2.5,Baltimore City,1452,6055,1995,1,120,,Active,,,http://www.redfin.com/MD/Baltimore/4101-W-Cold-Spring-Ln-21215/home/10901287,MRIS,BA10232815,N,Y,39.3348055,-76.6872684
MLS Listing,,Townhouse,1806 Washington St,Baltimore,MD,21213,75000,3,1.0,Baltimore City,,1038,1913,1,,,Active,,,http://www.redfin.com/MD/Baltimore/1806-N-Washington-St-21213/home/10781623,MRIS,BA10232799,N,Y,39.311286,-76.590622
MLS Listing,,Condo/Co-op,100 Harborview Dr #207,Baltimore,MD,21230,649000,2,3.0,Harborview,3124,,1992,1,208,2985,Active,May-12-2018 12:00 PM,May-12-2018 02:00 PM,http://www.redfin.com/MD/Baltimore/100-Harborview-Dr-21230/unit-207/home/11025138,MRIS,BA10232781,N,Y,39.2794132,-76.6043571
MLS Listing,,Townhouse,553 Lucia Ave,Baltimore,MD,21229,95000,2,1.0,Yale Heights,896,,1955,1,106,,Active,,,http://www.redfin.com/MD/Baltimore/553-Lucia-Ave-21229/home/11027544,MRIS,BA10232748,N,Y,39.274676,-76.6920899
MLS Listing,,Townhouse,1640 Northwick Rd,Baltimore,MD,21218,130900,3,2.0,Northwood,1178,2178,1946,1,111,,Active,,,http://www.redfin.com/MD/Baltimore/1640-Northwick-Rd-21218/home/11147350,MRIS,BA10232704,N,Y,39.343598,-76.5876059
MLS Listing,,Townhouse,1503 Northbourne Rd,Baltimore,MD,21239,149000,3,2.0,Northwood,1200,,1952,1,124,,Active,,,http://www.redfin.com/MD/Baltimore/1503-Northbourne-Rd-21239/home/11148891,MRIS,BA10232701,N,Y,39.3544089,-76.5888329
MLS Listing,,Townhouse,226 Montford Ave,Baltimore,MD,21224,165000,3,1.5,Patterson Park,972,,1880,1,170,,Active,,,http://www.redfin.com/MD/Baltimore/226-N-Montford-Ave-21224/home/10755621,MRIS,BA10232682,N,Y,39.295135,-76.5837134
MLS Listing,,Townhouse,318 28th St E,Baltimore,MD,21218,20000,3,1.0,Harwood,1244,,1920,1,16,,Active,,,http://www.redfin.com/MD/Baltimore/318-E-28th-St-21218/home/10849912,MRIS,BA10232655,N,Y,39.32233,-76.612043
MLS Listing,,Single Family Residential,4007 Chesmont Ave,Baltimore,MD,21206,169900,4,1.5,Lauraville,1248,6255,1923,1,136,,Active,,,http://www.redfin.com/MD/Baltimore/4007-Chesmont-Ave-21206/home/11129201,MRIS,BA10232643,N,Y,39.3371267,-76.55589
MLS Listing,,Townhouse,4316 Shamrock Ave,Baltimore,MD,21206,42400,3,1.0,0,1200,2178,1937,1,35,,Active,,,http://www.redfin.com/MD/Baltimore/4316-Shamrock-Ave-21206/home/11114937,MRIS,BA10232627,N,Y,39.3267349,-76.5631032
MLS Listing,,Townhouse,122 Monastery Ave,Baltimore,MD,21229,115000,3,1.5,Allendale,1178,,1942,1,98,,Active,,,http://www.redfin.com/MD/Baltimore/122-N-Monastery-Ave-21229/home/10988496,MRIS,BA10232625,N,Y,39.2887662,-76.6757754
MLS Listing,,Single Family Residential,5616 Birchwood Ave,Baltimore,MD,21214,97900,3,1.0,0,1272,6172,1919,1,77,,Active,,,http://www.redfin.com/MD/Baltimore/5616-Birchwood-Ave-21214/home/11188079,MRIS,BA10232600,N,Y,39.3582448,-76.5649206
MLS Listing,,Single Family Residential,4001 Charles St,Baltimore,MD,21218,1095000,7,4.0,Guilford,6912,18077,1920,1,158,70,Active,,,http://www.redfin.com/MD/Baltimore/4001-N-Charles-St-21218/home/10838973,MRIS,BA10232560,N,Y,39.3378549,-76.6179624
MLS Listing,,Townhouse,3517 Gelston Dr,Baltimore,MD,21229,10000,3,1.0,Edgewood,1116,,1931,1,9,,Active,,,http://www.redfin.com/MD/Baltimore/3517-Gelston-Dr-21229/home/10940505,MRIS,BA10232544,N,Y,39.2973451,-76.676046
MLS Listing,,Townhouse,2813 Harlem Ave,Baltimore,MD,21216,20000,3,1.0,Mosher,,,1920,1,,,Active,,,http://www.redfin.com/MD/Baltimore/2813-Harlem-Ave-21216/home/10931924,MRIS,BA10232526,N,Y,39.295319,-76.663428
MLS Listing,,Townhouse,3225 Fait Ave,Baltimore,MD,21224,520000,4,3.0,Canton,2100,,1913,1,248,,Active,,,http://www.redfin.com/MD/Baltimore/3225-Fait-Ave-21224/home/11071622,MRIS,BA10232506,N,Y,39.283236,-76.570371
MLS Listing,,Townhouse,961 Bennett Pl,Baltimore,MD,21223,5000,4,1.0,Harlem Park,,,1900,1,,,Active,,,http://www.redfin.com/MD/Baltimore/961-Bennett-Pl-21223/home/10952935,MRIS,BA10232495,N,Y,39.2948645,-76.6339372
MLS Listing,,Townhouse,111 Curley St S,Baltimore,MD,21224,244900,2,2.0,Patterson Park,1066,871,1904,1,230,,Active,,,http://www.redfin.com/MD/Baltimore/111-S-Curley-St-21224/home/10740602,MRIS,BA10232487,N,Y,39.2908185,-76.5752485
MLS Listing,,Townhouse,1712 Sherwood Ave,Baltimore,MD,21239,135900,3,1.5,Ramblewood,1064,3485,1954,1,128,,Active,,,http://www.redfin.com/MD/Baltimore/1712-Sherwood-Ave-21239/home/11186974,MRIS,BA10232414,N,Y,39.3601498,-76.5805987
MLS Listing,,Townhouse,346 29th St,Baltimore,MD,21211,150000,3,1.0,Baltimore,672,,1920,1,223,,Active,,,http://www.redfin.com/MD/Baltimore/346-W-29th-St-21211/home/10840173,MRIS,BA10232408,N,Y,39.3217855,-76.6233217
MLS Listing,,Single Family Residential,5202 Anthony Ave,Baltimore,MD,21206,135000,5,2.5,Xx,1638,13647,1923,1,82,,Active,,,http://www.redfin.com/MD/Baltimore/5202-Anthony-Ave-21206/home/11092542,MRIS,BA10232400,N,Y,39.3344932,-76.550065
MLS Listing,,Vacant Land,2820 Fox St,Baltimore,MD,21211,30000,,,*,,720,,1,,,Active,,,http://www.redfin.com/MD/Baltimore/2820-Fox-St-21211/home/10839607,MRIS,BA10232392,N,Y,39.3214019,-76.6225533
MLS Listing,,Townhouse,5018 Woodlands Glen Rd,Baltimore,MD,21209,219900,3,2.5,Coldspring,1472,1742,1995,1,149,25,Active,,,http://www.redfin.com/MD/Baltimore/5018-Woodland-Glen-Rd-21209/home/11212302,MRIS,BA10222712,N,Y,39.3501412,-76.6564546
MLS Listing,,Condo/Co-op,335 Homeland Southway Unit 2A,Baltimore,MD,21212,119000,2,2.0,Villages Of Homeland West,1066,,1978,1,112,392,Active,,,http://www.redfin.com/MD/Baltimore/335-Homeland-Southway-21212/unit-2A/home/11208159,MRIS,BA10231279,N,Y,39.3525611,-76.6146973
MLS Listing,,Single Family Residential,3305 White Ave,Baltimore,MD,21214,279900,4,2.5,Baltimore,1861,17668,1930,2,150,,Active,,,http://www.redfin.com/MD/Baltimore/3305-White-Ave-21214/home/11124777,MRIS,BA10232361,N,Y,39.3515548,-76.5536774
MLS Listing,,Townhouse,1325 Hollins St,Baltimore,MD,21223,229000,3,2.0,Union Square,2202,,1860,2,104,,Active,,,http://www.redfin.com/MD/Baltimore/1325-Hollins-St-21223/home/10966464,MRIS,BA10232357,N,Y,39.2873333,-76.638936
MLS Listing,,Townhouse,921 Eastern Ave,Baltimore,MD,21202,130000,2,1.0,Little Italy/harbor East,930,,1850,2,140,,Active,,,http://www.redfin.com/MD/Baltimore/921-Eastern-Ave-21202/home/10751226,MRIS,BA10231085,N,Y,39.2850862,-76.6009463
MLS Listing,,Townhouse,3531 Reisterstown Rd,Baltimore,MD,21215,80000,5,2.5,Baltimore City,,,1920,2,,,Active,,,http://www.redfin.com/MD/Baltimore/3531-Reisterstown-Rd-21215/home/10916855,MRIS,BA10232300,N,Y,39.3286159,-76.6597596
MLS Listing,,Townhouse,3201 Kentucky Ave,Baltimore,MD,21213,84900,3,2.0,Belair-edison,1018,,1948,2,83,,Active,,,http://www.redfin.com/MD/Baltimore/3201-Kentucky-Ave-21213/home/11111929,MRIS,BA10232299,N,Y,39.322536,-76.56928
MLS Listing,,Townhouse,1639 Woodbourne Ave,Baltimore,MD,21239,179900,3,2.0,Northwood,1280,2190,1952,2,141,,Active,,,http://www.redfin.com/MD/Baltimore/1639-Woodbourne-Ave-21239/home/11148574,MRIS,BA10232255,N,Y,39.3553228,-76.5847518
MLS Listing,,Townhouse,3703 Fait Ave,Baltimore,MD,21224,225000,3,1.5,Brewers Hill,1316,,1915,2,171,,Active,,,http://www.redfin.com/MD/Baltimore/3703-Fait-Ave-21224/home/11072843,MRIS,BA10232220,N,Y,39.2834108,-76.5658236
MLS Listing,,Single Family Residential,3304 Powhatan Ave,Baltimore,MD,21216,289900,5,3.5,Forest Park,3575,8150,1920,2,81,,Active,,,http://www.redfin.com/MD/Baltimore/3304-Powhatan-Ave-21216/home/10910913,MRIS,BA10232193,N,Y,39.3208627,-76.6741851
MLS Listing,,Townhouse,1254 Broadway,Baltimore,MD,21213,294900,4,2.5,Baltimore East,,2300,1920,2,,,Active,,,http://www.redfin.com/MD/Baltimore/1254-N-Broadway-21213/home/10785437,MRIS,BA10232184,N,Y,39.3051797,-76.5950217
MLS Listing,,Townhouse,2324 Arunah Ave,Baltimore,MD,21216,39900,5,3.0,Evergreen Lawn,1920,,1926,2,21,,Active,,,http://www.redfin.com/MD/Baltimore/2324-Arunah-Ave-21216/home/10948960,MRIS,BA10232155,N,Y,39.2957622,-76.6545239
MLS Listing,,Townhouse,227 Ellwood Ave S,Baltimore,MD,21224,259900,2,2.0,Patterson Park,1275,,1906,2,204,,Active,,,http://www.redfin.com/MD/Baltimore/227-S-Ellwood-Ave-21224/home/10741084,MRIS,BA10230460,N,Y,39.2894363,-76.5729686
MLS Listing,,Townhouse,934 Washington Blvd,Baltimore,MD,21230,189000,1,1.5,West Baltimore,784,4530,1875,2,241,,Active,,,http://www.redfin.com/MD/Baltimore/934-Washington-Blvd-21230/home/10997957,MRIS,BA10232049,N,Y,39.2830182,-76.6322385
MLS Listing,,Townhouse,3037 Baltimore St,Baltimore,MD,21224,375000,5,3.0,Patterson Park,2240,1307,2016,2,167,,Active,May-12-2018 12:00 PM,May-12-2018 03:00 PM,http://www.redfin.com/MD/Baltimore/3037-E-Baltimore-St-21224/home/104535833,MRIS,BA10232047,N,Y,39.2921424,-76.5735088
MLS Listing,,Townhouse,122 Gittings St E,Baltimore,MD,21230,269000,2,2.0,Federal Hill,1163,,1820,2,231,,Active,,,http://www.redfin.com/MD/Baltimore/122-Gittings-St-21230/home/11016001,MRIS,BA10232025,N,Y,39.2744042,-76.6110907
MLS Listing,,Townhouse,917 Washington Blvd,Baltimore,MD,21230,162900,2,1.0,Washington Village,1137,,1900,2,143,,Active,,,http://www.redfin.com/MD/Baltimore/917-Washington-Blvd-21230/home/11001395,MRIS,BA10232019,N,Y,39.2826698,-76.6315398
MLS Listing,,Townhouse,223 Pontiac Ave,Baltimore,MD,21225,99500,3,2.0,Baltimore,1260,,1928,2,79,,Active,,,http://www.redfin.com/MD/Baltimore/223-Pontiac-Ave-21225/home/11050716,MRIS,BA10229514,N,Y,39.236647,-76.608193
MLS Listing,,Townhouse,2914 Clearview Ave,Baltimore,MD,21234,149900,2,2.0,Baltimore City,1240,,1941,2,121,,Active,,,http://www.redfin.com/MD/Baltimore/2914-Clearview-Ave-21234/home/11190534,MRIS,BA10231965,N,Y,39.3707445,-76.5471497
MLS Listing,,Townhouse,126 Ellwood Ave S,Baltimore,MD,21224,369755,3,3.0,Canton,1974,,1906,2,187,,Active,May-13-2018 02:00 PM,May-13-2018 04:00 PM,http://www.redfin.com/MD/Baltimore/126-S-Ellwood-Ave-21224/home/10740814,MRIS,BA10231922,N,Y,39.2905674,-76.5734426
MLS Listing,,Townhouse,2044 Fountain St,Baltimore,MD,21231,389000,2,2.5,Fells Point,1412,,1920,2,275,,Active,,,http://www.redfin.com/MD/Baltimore/2044-Fountain-St-21231/home/10746992,MRIS,BA10227751,N,Y,39.2844883,-76.5873077
MLS Listing,,Single Family Residential,5203 Belleville Ave,Baltimore,MD,21207,249900,4,2.5,Howard Park,1715,7500,1924,3,146,,Active,,,http://www.redfin.com/MD/Baltimore/5203-Belleville-Ave-21207/home/11215948,MRIS,BA10231859,N,Y,39.33215,-76.7029073
MLS Listing,,Condo/Co-op,100 HARBORVIEW Dr #514,BALTIMORE,MD,21230,250000,2,2.0,BALTIMORE,1355,,1992,3,185,267,Active,,,http://www.redfin.com/MD/Baltimore/100-Harborview-Dr-21230/unit-514/home/11223622,BRIGHT MLS,1000492328,N,Y,39.2794132,-76.6043571
MLS Listing,,Condo/Co-op,100 Harborview Dr #514,Baltimore,MD,21230,250000,2,2.0,Harborview,1355,,1992,3,185,1482,Active,,,http://www.redfin.com/MD/Baltimore/100-Harborview-Dr-21230/unit-514/home/56364231,MRIS,BA10231831,N,Y,39.2794132,-76.6043571
MLS Listing,,Townhouse,1104 Steiger Way,Baltimore,MD,21205,24500,2,1.0,Armistead Gardens,,1,1940,3,,,Active,,,http://www.redfin.com/MD/Baltimore/1104-Steiger-Way-21205/home/109860625,MRIS,BA10231776,N,Y,39.3054542,-76.548204
MLS Listing,,Single Family Residential,4014 Biddison Ln,Baltimore,MD,21206,149900,3,1.5,Baltimore,1392,26397,1917,3,108,,Active,,,http://www.redfin.com/MD/Baltimore/4014-Biddison-Ln-21206/home/11127860,MRIS,BA10231778,N,Y,39.3382684,-76.5540838
MLS Listing,,Townhouse,112 Callender St,Baltimore,MD,21201,199000,2,2.0,Barre Circle Area,1188,816,1900,3,168,,Active,,,http://www.redfin.com/MD/Baltimore/112-Callender-St-21201/home/10956938,MRIS,BA10231697,N,Y,39.2864094,-76.6314748
MLS Listing,,Townhouse,2631 Calvert St,Baltimore,MD,21218,384000,3,2.5,Charles Village,2216,2310,1900,3,173,,Active,May-12-2018 01:30 PM,May-12-2018 03:30 PM,http://www.redfin.com/MD/Baltimore/2631-N-Calvert-St-21218/home/10847667,MRIS,BA10231684,N,Y,39.3202969,-76.614001
MLS Listing,,Single Family Residential,4419 Wilkens Ave,Baltimore,MD,21229,180000,3,3.0,Wilkens,1536,7000,1930,3,117,,Active,,,http://www.redfin.com/MD/Baltimore/4419-Wilkens-Ave-21229/home/9367633,MRIS,BC10231680,N,Y,39.265129,-76.695372
MLS Listing,,Townhouse,1534 Riverside Ave,Baltimore,MD,21230,415000,3,2.0,Federal Hill,1672,1307,1900,3,248,,Active,May-12-2018 02:00 PM,May-12-2018 04:00 PM,http://www.redfin.com/MD/Baltimore/1534-Riverside-Ave-21230/home/11018211,MRIS,BA10231628,N,Y,39.2719447,-76.6084503
MLS Listing,,Townhouse,2912 Poplar Ter,Baltimore,MD,21216,130000,4,2.0,Baltimore,900,,1924,3,144,,Active,,,http://www.redfin.com/MD/Baltimore/2912-Poplar-Ter-21216/home/10885337,MRIS,BA10231620,N,Y,39.3130002,-76.6671925
MLS Listing,,Single Family Residential,4218 Hamilton Ave,Baltimore,MD,21206,264900,5,2.0,Baltimore City,2041,14140,1912,3,130,,Active,,,http://www.redfin.com/MD/Baltimore/4218-Hamilton-Ave-21206/home/11099336,MRIS,BA10231579,N,Y,39.341429,-76.5443751
MLS Listing,,Townhouse,932 Elm Ridge Ave,Baltimore,MD,21229,235000,3,2.0,Elm Ridge,1800,2300,1948,3,131,,Active,,,http://www.redfin.com/MD/Baltimore/932-Elm-Ridge-Ave-21229/home/9369441,MRIS,BC10231513,N,Y,39.2627881,-76.6949317
MLS Listing,,Townhouse,1222 Walker Ave,Baltimore,MD,21239,168900,4,1.5,Idlewood,1064,,1953,3,159,,Active,,,http://www.redfin.com/MD/Baltimore/1222-Walker-Ave-21239/home/11205377,MRIS,BA10224120,N,Y,39.371319,-76.593395
MLS Listing,,Townhouse,2314 Longwood St,Baltimore,MD,21216,154900,3,2.0,Hanlon Park,1272,21780,1927,3,122,,Active,,,http://www.redfin.com/MD/Baltimore/2314-N-Longwood-St-21216/home/10885663,MRIS,BA10231451,N,Y,39.3137536,-76.6681061
MLS Listing,,Townhouse,4510 Fait Ave,Baltimore,MD,21224,349987,3,2.5,O'donnell Square,1792,1002,2013,3,195,56,Active,,,http://www.redfin.com/MD/Baltimore/4510-Fait-Ave-21224/home/59254000,MRIS,BA10230780,N,Y,39.2840936,-76.5578743
MLS Listing,,Single Family Residential,4604 Bayonne Ave,Baltimore,MD,21206,97000,3,4.0,Hazelwood,1368,6499,1924,3,71,,Active,,,http://www.redfin.com/MD/Baltimore/4604-Bayonne-Ave-21206/home/11098963,MRIS,BA10231443,N,Y,39.3411156,-76.5369059
MLS Listing,,Townhouse,1812 Braddish Ave,Baltimore,MD,21216,19990,2,1.0,Coppin Heights,,,1920,3,,,Active,,,http://www.redfin.com/MD/Baltimore/1812-Braddish-Ave-21216/home/10888012,MRIS,BA10231381,N,Y,39.3086579,-76.6612512
MLS Listing,,Townhouse,1217 Winston Ave,Baltimore,MD,21239,174900,3,2.0,Baltimore City,1216,2262,1944,3,144,,Active,,,http://www.redfin.com/MD/Baltimore/1217-Winston-Ave-21239/home/11194909,MRIS,BA10231380,N,Y,39.3490689,-76.5981637
MLS Listing,,Single Family Residential,4507 Kenwood Ave,Baltimore,MD,21206,215000,3,2.0,Elmwood,1552,7296,1951,3,139,,Active,,,http://www.redfin.com/MD/Baltimore/4507-Kenwood-Ave-21206/home/9411360,MRIS,BC10227301,N,Y,39.3536114,-76.5248894
MLS Listing,,Townhouse,1451 Boyle St,Baltimore,MD,21230,309900,2,1.0,Federal Hill,1053,,1900,4,294,,Active,,,http://www.redfin.com/MD/Baltimore/1451-Boyle-St-21230/home/11021760,MRIS,BA10231337,N,Y,39.2723804,-76.6021089
MLS Listing,,Townhouse,321 Marydell Rd,Baltimore,MD,21229,119999,3,1.5,Irvington,1152,1359,1927,4,104,,Active,May-13-2018 02:00 PM,May-13-2018 04:00 PM,http://www.redfin.com/MD/Baltimore/321-Marydell-Rd-21229/home/11026192,MRIS,BA10231331,N,Y,39.2809011,-76.6893667
MLS Listing,,Single Family Residential,5101 Eugene Ave,Baltimore,MD,21206,141000,3,1.0,Baltimore- Waltherson,984,5625,1928,4,143,,Active,,,http://www.redfin.com/MD/Baltimore/5101-Eugene-Ave-21206/home/11128953,MRIS,BA10231278,N,Y,39.3385172,-76.5562061
MLS Listing,,Single Family Residential,2905 Berwick Ave,Baltimore,MD,21234,149900,5,2.5,Parkville,2344,9047,1923,4,64,,Active,,,http://www.redfin.com/MD/Baltimore/2905-Berwick-Ave-21234/home/11190049,MRIS,BA10231251,N,Y,39.3650715,-76.5539032
MLS Listing,,Townhouse,1213 Bouldin St,Baltimore,MD,21224,549900,3,3.5,Canton,2048,10018,2005,4,269,,Active,,,http://www.redfin.com/MD/Baltimore/1213-S-Bouldin-St-21224/home/11891723,MRIS,BA10231243,N,Y,39.2787795,-76.5700597
MLS Listing,,Townhouse,4728 Frederick Ave,Baltimore,MD,21229,159900,3,3.0,Tremont,1428,1962,1930,4,112,,Active,,,http://www.redfin.com/MD/Baltimore/4728-Frederick-Ave-21229/home/11221142,MRIS,BA10231203,N,Y,39.281673,-76.6941745
MLS Listing,,Single Family Residential,3620 Mary Ave,Baltimore,MD,21206,245000,3,2.0,Baltimore,1524,5345,1924,4,161,,Active,,,http://www.redfin.com/MD/Baltimore/3620-Mary-Ave-21206/home/11133534,MRIS,BA10231193,N,Y,39.3496931,-76.5473894
MLS Listing,,Townhouse,1210 Gleneagle Rd,Baltimore,MD,21239,169900,3,2.0,Baltimore City,1116,,1950,4,152,,Active,,,http://www.redfin.com/MD/Baltimore/1210-Gleneagle-Rd-21239/home/11204096,MRIS,BA10231184,N,Y,39.3642305,-76.5928187
MLS Listing,,Townhouse,4010 Falls Rd,Baltimore,MD,21211,299900,3,3.0,Hampden,1320,,1920,4,227,,Active,May-9-2018 05:00 PM,May-9-2018 07:00 PM,http://www.redfin.com/MD/Baltimore/4010-Falls-Rd-21211/home/10874590,MRIS,BA10231163,N,Y,39.3370756,-76.6372368
MLS Listing,,Condo/Co-op,675 President St #1403,Baltimore,MD,21202,449000,2,2.0,Harbor East,1066,,2006,4,421,782,Active,,,http://www.redfin.com/MD/Baltimore/675-S-President-St-21202/unit-1403/home/12547260,MRIS,BA10231138,N,Y,39.2834056,-76.6012702
MLS Listing,,Townhouse,2914 Norfolk Ave,Baltimore,MD,21215,37900,3,2.0,Park Circle,,2068,1920,4,,,Active,,,http://www.redfin.com/MD/Baltimore/2914-Norfolk-Ave-21215/home/10915755,MRIS,BA10231079,N,Y,39.3276915,-76.6615285
MLS Listing,,Single Family Residential,4806 Holder Ave,Baltimore,MD,21214,245000,4,3.0,Lauraville,2119,6286,1923,4,116,,Active,,,http://www.redfin.com/MD/Baltimore/4806-Holder-Ave-21214/home/11126977,MRIS,BA10231071,N,Y,39.3430578,-76.5630242
MLS Listing,,Condo/Co-op,652 Charles St S Unit R14,Baltimore,MD,21230,249000,2,2.0,Otterbein,910,,1986,4,274,201,Active,,,http://www.redfin.com/MD/Baltimore/652-S-Charles-St-21230/unit-R14/home/11885624,MRIS,BA10211495,N,Y,39.281553,-76.615097
MLS Listing,,Single Family Residential,2833 Rosalie Ave,Baltimore,MD,21234,237500,3,2.5,Parkville,1177,6246,1925,4,202,,Active,,,http://www.redfin.com/MD/Baltimore/2833-Rosalie-Ave-21234/home/11190644,MRIS,BA10231055,N,Y,39.368648,-76.5504714
MLS Listing,,Single Family Residential,3801 Garrison Blvd,Baltimore,MD,21215,259000,4,2.5,Garrison,2560,7500,1983,4,101,,Active,,,http://www.redfin.com/MD/Baltimore/3801-Garrison-Blvd-21215/home/10903904,MRIS,BA10231021,N,Y,39.3315146,-76.6822418
MLS Listing,,Townhouse,1115 Sargeant St,Baltimore,MD,21223,164900,3,2.0,Washington Village,1390,,1900,4,119,,Active,,,http://www.redfin.com/MD/Baltimore/1115-Sargeant-St-21223/home/10997238,MRIS,BA10227196,N,Y,39.282807,-76.6334306
MLS Listing,,Townhouse,117 Potomac St N,Baltimore,MD,21224,284900,3,2.0,Patterson Park,960,,1900,4,297,,Active,,,http://www.redfin.com/MD/Baltimore/117-N-Potomac-St-21224/home/10763078,MRIS,BA10231019,N,Y,39.2937802,-76.5746842
MLS Listing,,Townhouse,1119 Scott St,Baltimore,MD,21230,50000,2,1.0,Washington Village,1102,,1900,4,45,,Active,,,http://www.redfin.com/MD/Baltimore/1119-Scott-St-21230/home/11003456,MRIS,BA10231015,N,Y,39.2793319,-76.628406
MLS Listing,,Townhouse,1419 Locust St,Baltimore City,MD,21226,39999,2,1.0,N/a,992,,1956,4,40,,Active,,,http://www.redfin.com/MD/Baltimore/1419-Locust-St-21226/home/11058055,MRIS,BA10230987,N,Y,39.2264969,-76.5907897
MLS Listing,,Townhouse,1820 E Lafayette Ave,Baltimore,MD,21213,20000,3,1.0,Broadway East,,,1913,4,,,Active,,,http://www.redfin.com/MD/Baltimore/1820-E-Lafayette-Ave-21213/home/10781475,MRIS,BA10230956,N,Y,39.3109536,-76.5922319
MLS Listing,,Townhouse,902 Milton Ave N,Baltimore,MD,21205,235000,2,3.0,Station East,,,1920,4,,,Active,,,http://www.redfin.com/MD/Baltimore/902-N-Milton-Ave-21205/home/10764391,MRIS,BA10230921,N,Y,39.3012961,-76.5826515
MLS Listing,,Townhouse,1224 Winston Ave,Baltimore,MD,21239,168000,3,2.0,Northwood,1248,,1957,4,135,,Active,,,http://www.redfin.com/MD/Baltimore/1224-Winston-Ave-21239/home/11195626,MRIS,BA10230916,N,Y,39.349475,-76.597774
MLS Listing,,Townhouse,112 Potomac St N,Baltimore,MD,21224,274900,3,2.5,Patterson Park,960,,1900,4,286,,Active,,,http://www.redfin.com/MD/Baltimore/112-N-Potomac-St-21224/home/10762619,MRIS,BA10230920,N,Y,39.2937056,-76.5750679
MLS Listing,,Townhouse,3907 Fleet St,Baltimore,MD,21224,414900,4,4.5,The Summit At Brewer's Hill,2178,2678,2006,4,190,,Active,,,http://www.redfin.com/MD/Baltimore/3907-Fleet-St-21224/home/12095664,MRIS,BA10230887,N,Y,39.2855673,-76.563916
MLS Listing,,Townhouse,2102 Bolton St,Baltimore,MD,21217,449900,4,3.5,Reservoir Hill,2520,2522,1900,4,179,,Active,May-20-2018 01:00 PM,May-20-2018 03:00 PM,http://www.redfin.com/MD/Baltimore/2102-Bolton-St-21217/home/10866999,MRIS,BA10230888,N,Y,39.3118565,-76.6302266
MLS Listing,,Single Family Residential,4425 Garrison Blvd,Baltimore,MD,21215,44900,4,2.0,000000,2866,5980,1930,4,16,,Active,,,http://www.redfin.com/MD/Baltimore/4425-Garrison-Blvd-21215/home/10881808,MRIS,BA10230850,N,Y,39.3379125,-76.6845155
MLS Listing,,Single Family Residential,2703 Latona Rd,Baltimore,MD,21214,274999,4,3.5,Hamilton,1489,8228,1927,4,185,,Active,,,http://www.redfin.com/MD/Baltimore/2703-Latona-Rd-21214/home/11144853,MRIS,BA10230805,N,Y,39.3522719,-76.5668657
MLS Listing,,Townhouse,1321 Sherwood Ave,Baltimore,MD,21239,170000,3,2.0,Ramblewood,1064,,1953,4,160,,Active,,,http://www.redfin.com/MD/Baltimore/1321-Sherwood-Ave-21239/home/11204634,MRIS,BA10229378,N,Y,39.3652804,-76.5897618
MLS Listing,,Townhouse,602 Washington St S,Baltimore,MD,21231,189900,2,1.5,Fells Point,1330,,1920,4,143,,Active,,,http://www.redfin.com/MD/Baltimore/602-S-Washington-St-21231/home/10746793,MRIS,BA10230785,N,Y,39.284373,-76.58896
MLS Listing,,Townhouse,605 Lakewood Ave S,Baltimore,MD,21224,319000,2,1.5,Canton,1498,,1910,4,213,,Active,,,http://www.redfin.com/MD/Baltimore/605-S-Lakewood-Ave-21224/home/10738280,MRIS,BA10227675,N,Y,39.284977,-76.578307
MLS Listing,,Single Family Residential,1807 Eastern Ave,Baltimore,MD,21231,209000,3,1.0,Fells Point,1248,1307,1855,4,167,,Active,,,http://www.redfin.com/MD/Baltimore/1807-Eastern-Ave-21231/home/10747709,MRIS,BA10230740,N,Y,39.2855075,-76.5908438
MLS Listing,,Townhouse,2909 Norfolk Ave,Baltimore,MD,21215,99900,4,2.0,Park Circle,,,1920,4,,,Active,,,http://www.redfin.com/MD/Baltimore/2909-Norfolk-Ave-21215/home/10915607,MRIS,BA10230741,N,Y,39.3274794,-76.6610839
MLS Listing,,Townhouse,1403 Marshall St,Baltimore,MD,21230,389000,2,3.0,Federal Hill,1008,,1880,4,386,,Active,,,http://www.redfin.com/MD/Baltimore/1403-Marshall-St-21230/home/11014403,MRIS,BA10230680,N,Y,39.2740646,-76.6124448
MLS Listing,,Townhouse,227 Gilmor St S,Baltimore,MD,21223,75000,4,1.0,New Southwest- Mount Clare,,945,1920,4,,,Active,,,http://www.redfin.com/MD/Baltimore/227-S-Gilmor-St-21223/home/10966027,MRIS,BA10230699,N,Y,39.2847023,-76.6419503
MLS Listing,,Townhouse,423 Curley St N,Baltimore,MD,21224,39900,3,1.0,Patterson Park,1008,,1920,4,40,,Active,,,http://www.redfin.com/MD/Baltimore/423-N-Curley-St-21224/home/10753309,MRIS,BA10230594,N,Y,39.2963725,-76.5755645
MLS Listing,,Single Family Residential,2721 Louise Ave,Baltimore,MD,21214,129900,2,2.0,Hamilton,1484,6499,1925,4,88,,Active,,,http://www.redfin.com/MD/Baltimore/2721-Louise-Ave-21214/home/11188802,MRIS,BA10230607,N,Y,39.3613939,-76.5598232
MLS Listing,,Single Family Residential,518 Fairview Ave,Baltimore,MD,21224,175000,3,1.0,East View,1440,4000,1949,4,122,,Active,,,http://www.redfin.com/MD/Baltimore/518-Fairview-Ave-21224/home/9306628,MRIS,BC10230606,N,Y,39.2914171,-76.5180498
MLS Listing,,Townhouse,431 Bouldin St N,Baltimore,MD,21224,149900,3,1.0,Patterson Park,976,,1924,4,154,,Active,,,http://www.redfin.com/MD/Baltimore/431-N-Bouldin-St-21224/home/11090917,MRIS,BA10230547,N,Y,39.2965615,-76.5711272
MLS Listing,,Townhouse,324 Wolfe St S,Baltimore,MD,21231,399900,4,3.5,Fells Point,2110,,1900,4,190,,Active,,,http://www.redfin.com/MD/Baltimore/324-S-Wolfe-St-21231/home/10743539,MRIS,BA10230463,N,Y,39.2871059,-76.5903495
MLS Listing,,Townhouse,618 Lakewood Ave S,Baltimore,MD,21224,384990,3,2.5,Canton,1600,,1920,4,241,,Active,May-12-2018 11:00 AM,May-12-2018 01:00 PM,http://www.redfin.com/MD/Baltimore/618-S-Lakewood-Ave-21224/home/10731172,MRIS,BA10230474,N,Y,39.284719,-76.5787859
MLS Listing,,Townhouse,5027 Orville Ave,Baltimore,MD,21205,44500,3,1.0,Armistead Gardens,,123,1940,4,,,Active,,,http://www.redfin.com/MD/Baltimore/5027-Orville-Ave-21205/home/56864740,MRIS,BA10230473,N,Y,39.3101057,-76.5579052
MLS Listing,,Townhouse,6152 Parkway Dr,Baltimore,MD,21212,155000,2,2.0,Lake Evesham,1708,,1947,4,91,,Active,,,http://www.redfin.com/MD/Baltimore/6152-Parkway-Dr-21212/home/11202656,MRIS,BA10230335,N,Y,39.3686541,-76.6019209
MLS Listing,,Single Family Residential,3603 Clarinth Rd,Baltimore,MD,21215,199900,3,1.5,Upper Park Heights,1404,6883,1939,4,142,,Active,,,http://www.redfin.com/MD/Baltimore/3603-Clarinth-Rd-21215/home/11181269,MRIS,BA10230328,N,Y,39.3623517,-76.7011934
MLS Listing,,Townhouse,63 Upmanor Rd,Baltimore,MD,21229,57900,3,1.0,Uplands,1024,871,1948,4,57,,Active,,,http://www.redfin.com/MD/Baltimore/63-Upmanor-Rd-21229/home/11221436,MRIS,BA10230343,N,Y,39.2875591,-76.6896476
MLS Listing,,Condo/Co-op,341 Homeland Southway Unit 1A,Baltimore,MD,21212,91500,1,1.0,Villages At Homeland,860,,1978,4,106,329,Active,,,http://www.redfin.com/MD/Baltimore/341-Homeland-Southway-21212/unit-1A/home/11208199,MRIS,BA10230327,N,Y,39.3525611,-76.6146973
MLS Listing,,Townhouse,3701 Old York Rd,Baltimore,MD,21218,69900,3,2.0,Waverly,1260,2430,1927,4,55,,Active,,,http://www.redfin.com/MD/Baltimore/3701-Old-York-Rd-21218/home/10805091,MRIS,BA10230302,N,Y,39.3341443,-76.6072316
MLS Listing,,Townhouse,106 Milton Ave N,Baltimore,MD,21224,244900,3,1.5,Patterson Park,1260,,1920,4,194,,Active,May-12-2018 01:30 PM,May-12-2018 03:30 PM,http://www.redfin.com/MD/Baltimore/106-N-Milton-Ave-21224/home/10759250,MRIS,BA10230267,N,Y,39.2933443,-76.5821734
MLS Listing,,Townhouse,1260 Sargeant St,Baltimore,MD,21223,119900,3,2.0,Washington Village,780,,1898,4,154,,Active,,,http://www.redfin.com/MD/Baltimore/1260-Sargeant-St-21223/home/10999173,MRIS,BA10230259,N,Y,39.2814719,-76.6355315
MLS Listing,,Townhouse,619 Potomac St S,Baltimore,MD,21224,325000,2,1.5,Canton,1362,436,1910,4,239,,Active,,,http://www.redfin.com/MD/Baltimore/619-S-Potomac-St-21224/home/10738837,MRIS,BA10230247,N,Y,39.2848498,-76.5741198
MLS Listing,,Single Family Residential,4601 Bayonne Ave,Baltimore,MD,21206,225900,3,3.0,Baltimore City,1746,11247,1953,4,129,,Active,,,http://www.redfin.com/MD/Baltimore/4601-Bayonne-Ave-21206/home/11099420,MRIS,BA10230246,N,Y,39.3408398,-76.5373454
MLS Listing,,Townhouse,7 Southfield Pl,Baltimore,MD,21212,269900,3,1.5,Homeland,1600,2178,1936,4,169,12,Active,May-9-2018 12:00 PM,May-9-2018 02:00 PM,http://www.redfin.com/MD/Baltimore/7-Southfield-Pl-21212/home/11153069,MRIS,BA10230232,N,Y,39.3543339,-76.6131782
MLS Listing,,Townhouse,2513 Mosher St,Baltimore,MD,21216,20000,2,2.0,Bridgeview/greenlawn,1200,,1936,4,17,,Active,,,http://www.redfin.com/MD/Baltimore/2513-Mosher-St-21216/home/10950312,MRIS,BA10230129,N,Y,39.2993261,-76.6571569
MLS Listing,,Townhouse,2414 Orleans St,Baltimore,MD,21224,192987,3,3.5,Mcelderly Park,1170,,1880,4,165,,Active,,,http://www.redfin.com/MD/Baltimore/2414-Orleans-St-21224/home/10755494,MRIS,BA10230097,N,Y,39.2957731,-76.5826977
MLS Listing,,Condo/Co-op,2355 Sorrel Ct Unit .,Baltimore,MD,21209,109900,2,2.0,Coldspring Newtown,1552,,1987,4,71,450,Active,,,http://www.redfin.com/MD/Baltimore/2355-Sorrel-Ct-21209/unit-2355/home/143412244,MRIS,BA10230067,N,Y,39.3484924,-76.6578304
MLS Listing,,Townhouse,1521 Bond St,Baltimore,MD,21213,25000,4,2.0,X,,,1915,4,,,Active,,,http://www.redfin.com/MD/Baltimore/1521-N-Bond-St-21213/home/10783940,MRIS,BA10230058,N,Y,39.3079314,-76.596579
MLS Listing,,Townhouse,906 20th St,Baltimore,MD,21218,25000,3,1.0,,,,1920,4,,,Active,,,http://www.redfin.com/MD/Baltimore/906-E-20th-St-21218/home/10813016,MRIS,BA10230055,N,Y,39.3128821,-76.6059535
MLS Listing,,Townhouse,1611 Bolton St,Baltimore,MD,21217,675000,4,3.5,Bolton Hill,4535,2600,1920,4,149,,Active,,,http://www.redfin.com/MD/Baltimore/1611-Bolton-St-21217/home/10880611,MRIS,BA10224106,N,Y,39.3081503,-76.6271352
MLS Listing,,Townhouse,3921 Ridgewood Ave,Baltimore,MD,21215,20000,4,2.5,Dolfield,1566,,1910,4,13,,Active,,,http://www.redfin.com/MD/Baltimore/3921-Ridgewood-Ave-21215/home/10903297,MRIS,BA10230045,N,Y,39.3365044,-76.6836461
MLS Listing,,Townhouse,4290 Clydesdale Ave,Baltimore,MD,21211,179000,3,1.0,Medfield,1424,1520,1953,4,126,,Active,,,http://www.redfin.com/MD/Baltimore/4290-Clydesdale-Ave-21211/home/10872882,MRIS,BA10225477,N,Y,39.3390295,-76.6445314
MLS Listing,,Townhouse,237 25th St E,Baltimore,MD,21218,299900,3,2.0,Charles Village,,871,1920,4,,,Active,,,http://www.redfin.com/MD/Baltimore/237-E-25th-St-21218/home/10846787,MRIS,BA10223963,N,Y,39.3177514,-76.6129482
MLS Listing,,Townhouse,3536 Ellerslie Ave,Baltimore,MD,21218,30000,3,2.0,Waverly,2200,,1920,4,14,,Active,,,http://www.redfin.com/MD/Baltimore/3536-Ellerslie-Ave-21218/home/11839293,MRIS,BA10230031,N,Y,39.3318705,-76.603866
MLS Listing,,Townhouse,105 Lakewood Ave,Baltimore,MD,21224,245000,2,2.5,Patterson Park,1944,871,1920,4,126,,Active,May-12-2018 10:30 AM,May-12-2018 12:30 PM,http://www.redfin.com/MD/Baltimore/105-N-Lakewood-Ave-21224/home/10760950,MRIS,BA10229969,N,Y,39.2934383,-76.5788927
MLS Listing,,Townhouse,3640 Keystone Ave,Baltimore,MD,21211,115000,2,1.0,Woodberry Historic District,1024,1307,1956,4,112,,Active,,,http://www.redfin.com/MD/Baltimore/3640-Keystone-Ave-21211/home/10862082,MRIS,BA10229960,N,Y,39.3329896,-76.6502845
MLS Listing,,Townhouse,3722 Evergreen Ave,Baltimore,MD,21206,139900,3,1.5,Waltherson,1024,,1952,4,137,,Active,,,http://www.redfin.com/MD/Baltimore/3722-Evergreen-Ave-21206/home/11124258,MRIS,BA10229945,N,Y,39.3468762,-76.5496103
MLS Listing,,Townhouse,4032 Annellen Rd,Baltimore,MD,21215,162900,3,3.0,Ashburton,2178,,1955,4,75,,Active,,,http://www.redfin.com/MD/Baltimore/4032-Annellen-Rd-21215/home/10907302,MRIS,BA10229927,N,Y,39.3333335,-76.6688279
MLS Listing,,Townhouse,3902 Claremont St,Baltimore,MD,21224,99000,3,1.5,Highlandtown,1398,871,1920,4,71,,Active,,,http://www.redfin.com/MD/Baltimore/3902-Claremont-Ave-21224/home/11080385,MRIS,BA10229919,N,Y,39.2897534,-76.5642772
MLS Listing,,Townhouse,2023 31st St E,Baltimore,MD,21218,54000,4,1.5,Baltimore City,1984,2160,1920,4,27,,Active,,,http://www.redfin.com/MD/Baltimore/2023-E-31st-St-21218/home/10814894,MRIS,BA10229903,N,Y,39.3260689,-76.58687
MLS Listing,,Townhouse,513 Allendale St,Baltimore,MD,21229,79400,3,1.5,Edmondson Village,1216,,1940,4,65,,Active,,,http://www.redfin.com/MD/Baltimore/513-Allendale-St-21229/home/10989869,MRIS,BA10229805,N,Y,39.2930629,-76.678079
MLS Listing,,Townhouse,592 Beechfield Ave S,Baltimore,MD,21229,159900,3,1.5,Norwood Heights,1008,,1960,4,159,,Active,,,http://www.redfin.com/MD/Baltimore/592-S-Beechfield-Ave-21229/home/11031995,MRIS,BA10229807,N,Y,39.2737609,-76.6936455
MLS Listing,,Townhouse,2153 Chelsea Ter,Baltimore,MD,21216,65000,4,1.0,Gwynn Falls,1656,4356,1920,4,39,,Active,,,http://www.redfin.com/MD/Baltimore/2153-Chelsea-Ter-21216/home/10883939,MRIS,BA10228929,N,Y,39.312493,-76.6805797
MLS Listing,,Single Family Residential,1919 Forest Park Ave N,Baltimore,MD,21207,244900,3,3.0,Franklintown,1576,11960,1920,4,155,,Active,,,http://www.redfin.com/MD/Baltimore/1919-N-Forest-Park-Ave-21207/home/11217753,MRIS,BA10223341,N,Y,39.3084061,-76.7083548
MLS Listing,,Townhouse,115 Lee St W,Baltimore,MD,21201,1050000,5,5.0,Otterbein,4476,,1900,4,235,15,Active,,,http://www.redfin.com/MD/Baltimore/115-W-Lee-St-21201/home/11006559,MRIS,BA10212451,N,Y,39.2818981,-76.6166535
MLS Listing,,Townhouse,5615 Ready Ave,Baltimore,MD,21212,140000,3,2.0,Govans,1290,7405,1941,5,109,,Active,,,http://www.redfin.com/MD/Baltimore/5615-Ready-Ave-21212/home/11199783,MRIS,BA10229713,N,Y,39.3582648,-76.6085976
MLS Listing,,Townhouse,5615 Belle Ave,Baltimore,MD,21207,134900,2,1.0,Gwynn Oak,1440,3310,1952,5,94,,Active,,,http://www.redfin.com/MD/Baltimore/5615-Belle-Ave-21207/home/11215175,MRIS,BA10229688,N,Y,39.339536,-76.702912
MLS Listing,,Townhouse,2906 Elliott St,Baltimore,MD,21224,435000,3,3.0,Canton Square,1914,4,1987,5,227,83,Active,,,http://www.redfin.com/MD/Baltimore/2906-Elliott-St-21224/home/10733160,MRIS,BA10224171,N,Y,39.2793486,-76.5750345
MLS Listing,,Townhouse,4013 Wilsby Ave,Baltimore,MD,21218,48000,3,2.5,Pen Lucy,1260,1742,1924,5,38,,Active,,,http://www.redfin.com/MD/Baltimore/4013-Wilsby-Ave-21218/home/10804115,MRIS,BA10229625,N,Y,39.3385416,-76.604274
MLS Listing,,Single Family Residential,4010 4th St,Baltimore,MD,21225,260000,4,1.5,Brooklyn,2548,6247,1923,5,102,,Active,,,http://www.redfin.com/MD/Baltimore/4010-4th-St-21225/home/11053602,MRIS,BA10229577,N,Y,39.2324628,-76.608078
MLS Listing,,Townhouse,2858 Pelham Ave,Baltimore,MD,21213,89900,3,1.0,Belair Edison,1164,1742,1927,5,77,,Active,,,http://www.redfin.com/MD/Baltimore/2858-Pelham-Ave-21213/home/11119016,MRIS,BA10229574,N,Y,39.324987,-76.57081
MLS Listing,,Townhouse,1531 36th St,Baltimore,MD,21218,169900,3,2.0,Ednor Gardens - Lakeside,1470,,1951,5,116,,Active,,,http://www.redfin.com/MD/Baltimore/1531-E-36th-St-21218/home/10828447,MRIS,BA10212991,N,Y,39.3324939,-76.5928723
MLS Listing,,Townhouse,1668 Northbourne Rd,Baltimore,MD,21239,179999,3,2.0,Northwood,1280,2090,1954,5,141,,Active,,,http://www.redfin.com/MD/Baltimore/1668-Northbourne-Rd-21239/home/11148875,MRIS,BA10229506,N,Y,39.35454,-76.5835929
MLS Listing,,Townhouse,1733 Fleet St,Baltimore,MD,21231,229900,4,4.5,Fells Point,2628,2000,1920,5,87,,Active,,,http://www.redfin.com/MD/Baltimore/1733-Fleet-St-21231/home/10745086,MRIS,BA10229424,N,Y,39.2844335,-76.5919343
MLS Listing,,Townhouse,1524 William St,Baltimore,MD,21230,283900,2,1.5,Federal Hill,696,1307,1900,5,408,,Active,,,http://www.redfin.com/MD/Baltimore/1524-William-St-21230/home/11016614,MRIS,BA10229381,N,Y,39.2722366,-76.6100978
MLS Listing,,Townhouse,1312 Patapsco St,Baltimore,MD,21230,369000,3,3.0,Federal Hill,1916,982,1900,5,193,,Active,,,http://www.redfin.com/MD/Baltimore/1312-Patapsco-St-21230/home/11014121,MRIS,BA10229331,N,Y,39.2743311,-76.6135302
MLS Listing,,Townhouse,506 38th St,Baltimore,MD,21218,116000,3,1.0,Waverly,1186,,1946,5,98,,Active,May-12-2018 12:00 PM,May-12-2018 02:00 PM,http://www.redfin.com/MD/Baltimore/506-E-38th-St-21218/home/10803404,MRIS,BA10229313,N,Y,39.3355043,-76.6091836
MLS Listing,,Single Family Residential,4707 Anntana Ave,Baltimore,MD,21206,219000,4,2.0,Gardenville,1662,29185,1951,5,132,,Active,,,http://www.redfin.com/MD/Baltimore/4707-Anntana-Ave-21206/home/11095391,MRIS,BA10229280,N,Y,39.3338676,-76.5415219
MLS Listing,,Townhouse,1813 Presstman St,Baltimore,MD,21217,18500,2,1.0,Baltimore,,,1910,5,,,Active,,,http://www.redfin.com/MD/Baltimore/1813-Presstman-St-21217/home/25801846,MRIS,BA10229241,N,Y,39.3051017,-76.646968
MLS Listing,,Townhouse,743 Linnard St,Baltimore,MD,21229,63900,4,1.0,Edmondson Village,1360,,1923,5,47,,Active,,,http://www.redfin.com/MD/Baltimore/743-Linnard-St-21229/home/10940168,MRIS,BA10229226,N,Y,39.2963187,-76.6750987
MLS Listing,,Townhouse,411 31st St,Baltimore,MD,21218,189000,3,2.0,Charles Village,1957,,1875,5,97,,Active,,,http://www.redfin.com/MD/Baltimore/411-E-31st-St-21218/home/10854590,MRIS,BA10229209,N,Y,39.325832,-76.6104629
MLS Listing,,Single Family Residential,4300 Kolb Ave,Baltimore,MD,21206,319500,5,3.5,Belmar,1792,7500,1917,5,178,,Active,,,http://www.redfin.com/MD/Baltimore/4300-Kolb-Ave-21206/home/9412961,MRIS,BC10229213,N,Y,39.352745,-76.52916
MLS Listing,,Single Family Residential,1417 Webster St,Baltimore,MD,21230,1499000,4,3.5,Federal Hill,4000,1560,2018,5,375,,Active,,,http://www.redfin.com/MD/Baltimore/1417-Webster-St-21230/home/11021721,MRIS,BA10229161,N,Y,39.2728437,-76.6036905
MLS Listing,,Single Family Residential,315 Frankle St,Baltimore,MD,21225,123000,2,2.0,Curtis Heights,,3744,1951,5,,,Active,,,http://www.redfin.com/MD/Baltimore/315-Frankle-St-21225/home/10402828,MRIS,AA10229147,N,Y,39.2321641,-76.6089355
MLS Listing,,Townhouse,3704 Arcadia Ave,Baltimore,MD,21215,74900,3,1.0,Park Heights,,,1930,5,,,Active,,,http://www.redfin.com/MD/Baltimore/3704-Arcadia-Ave-21215/home/11171316,MRIS,BA10229144,N,Y,39.3436839,-76.6782339
MLS Listing,,Townhouse,2705 Biddle St E,Baltimore,MD,21213,149999,4,3.0,Baltimore City,,4600,1925,5,,,Active,,,http://www.redfin.com/MD/Baltimore/2705-E-Biddle-St-21213/home/10797691,MRIS,BA10229107,N,Y,39.3047074,-76.5795601
MLS Listing,,Townhouse,5607 Whitby Rd,Baltimore,MD,21206,159900,3,1.5,Holland Hill,1184,2627,1965,5,135,,Active,,,http://www.redfin.com/MD/Baltimore/5607-Whitby-Rd-21206/home/9399293,MRIS,BC10229098,N,Y,39.3361558,-76.5292913
MLS Listing,,Townhouse,3710 Arcadia Ave,Baltimore,MD,21215,29900,3,1.0,Park Heights,,,1930,5,,,Active,,,http://www.redfin.com/MD/Baltimore/3710-Arcadia-Ave-21215/home/11171321,MRIS,BA10229052,N,Y,39.3436001,-76.6783693
MLS Listing,,Townhouse,336 Newkirk St S,Baltimore,MD,21224,99982,3,1.0,Geektown,1105,,1915,5,90,,Active,,,http://www.redfin.com/MD/Baltimore/336-S-Newkirk-St-21224/home/11081381,MRIS,BA10229035,N,Y,39.2883234,-76.5568263
MLS Listing,,Townhouse,5716 Ranny Rd,Baltimore,MD,21209,270000,3,1.5,Mt Washington,1516,3485,1948,5,178,,Active,,,http://www.redfin.com/MD/Baltimore/5716-Ranny-Rd-21209/home/11164728,MRIS,BA10229032,N,Y,39.3643374,-76.6608649
MLS Listing,,Vacant Land,402 Madeira St N,Baltimore,MD,21231,15000,,,Care,,923,,5,,,Active,,,http://www.redfin.com/MD/Baltimore/402-N-Madeira-St-21231/home/10756399,MRIS,BA10228990,N,Y,39.2955137,-76.5858482
MLS Listing,,Single Family Residential,4001 Springdale Ave,Baltimore,MD,21207,269900,5,4.0,Forest Park/ Gwynn Oak,2085,10000,1920,5,129,,Active,,,http://www.redfin.com/MD/Baltimore/4001-Springdale-Ave-21207/home/10882188,MRIS,BA10228983,N,Y,39.3258416,-76.6871711
MLS Listing,,Townhouse,1410 Pratt St W,Baltimore,MD,21223,25000,4,2.5,Union Square,1650,,1880,5,15,,Active,,,http://www.redfin.com/MD/Baltimore/1410-W-Pratt-St-21223/home/25807333,MRIS,BA10228951,N,Y,39.2856132,-76.6399062
MLS Listing,,Single Family Residential,521 Maude Ave,Baltimore,MD,21225,25000,3,1.0,Balto City,960,2400,1923,5,26,,Active,,,http://www.redfin.com/MD/Baltimore/521-Maude-Ave-21225/home/11048853,MRIS,BA10228942,N,Y,39.238357,-76.602198
MLS Listing,,Single Family Residential,2848 Boarman Ave,Baltimore,MD,21215,35000,3,1.0,Balto City,,1665,1920,5,,,Active,,,http://www.redfin.com/MD/Baltimore/2848-Boarman-Ave-21215/home/10921922,MRIS,BA10228894,N,Y,39.3374582,-76.6693693
MLS Listing,,Townhouse,836 Park Ave Unit C,Baltimore,MD,21201,225000,1,1.0,Mount Vernon,907,,1910,5,248,185,Active,,,http://www.redfin.com/MD/Baltimore/836-Park-Ave-21201/unit-C/home/11891818,MRIS,BA10228871,N,Y,39.2999208,-76.6186574
MLS Listing,,Single Family Residential,1708 Wilkens Ave,Baltimore,MD,21223,19900,3,1.0,Balto City,,914,1915,5,,,Active,,,http://www.redfin.com/MD/Baltimore/1708-Wilkens-Ave-21223/home/10963045,MRIS,BA10228867,N,Y,39.283035,-76.644418
MLS Listing,,Townhouse,3449 Ash St,Baltimore,MD,21211,239500,2,2.5,Hampden,1288,2120,1880,5,186,,Active,,,http://www.redfin.com/MD/Baltimore/3449-Ash-St-21211/home/10860571,MRIS,BA10228863,N,Y,39.3283151,-76.6395452
MLS Listing,,Townhouse,2011 Cliftwood Ave,Baltimore,MD,21213,44900,3,1.0,Clifton Park,,,1920,5,,,Active,,,http://www.redfin.com/MD/Baltimore/2011-Cliftwood-Ave-21213/home/10780453,MRIS,BA10228826,N,Y,39.3134027,-76.5897175
MLS Listing,,Townhouse,5735 Edgepark Rd,Baltimore,MD,21239,159900,3,1.5,Loch Raven,1178,3133,1948,5,136,,Active,,,http://www.redfin.com/MD/Baltimore/5735-Edgepark-Rd-21239/home/11186721,MRIS,BA10228796,N,Y,39.3566875,-76.5758251
MLS Listing,,Multi-Family (5+ Unit),107 Chase St E,Baltimore,MD,21202,675000,,,Mount Vernon  /  Mid-town Belvedere,5904,2928,1870,5,114,,Active,,,http://www.redfin.com/MD/Baltimore/107-E-Chase-St-21202/home/25797146,MRIS,BA10228766,N,Y,39.3023621,-76.613449
MLS Listing,,Townhouse,2203 Dukeland St,Baltimore,MD,21216,134900,3,1.0,Gwynns Falls,1024,,1958,5,132,,Active,,,http://www.redfin.com/MD/Baltimore/2203-N-Dukeland-St-21216/home/10912971,MRIS,BA10228746,N,Y,39.3125916,-76.6639329
MLS Listing,,Single Family Residential,4014 Pinkney Rd,Baltimore,MD,21215,210000,4,2.0,Upper Park Heights,1456,5998,1928,5,144,,Active,,,http://www.redfin.com/MD/Baltimore/4014-Pinkney-Rd-21215/home/11182245,MRIS,BA10228713,N,Y,39.3532191,-76.696978
MLS Listing,,Single Family Residential,3002 Batavia Ave,Baltimore,MD,21214,179900,3,2.5,Hamilton,1445,8398,1925,5,124,,Active,,,http://www.redfin.com/MD/Baltimore/3002-Batavia-Ave-21214/home/25816006,MRIS,BA10228718,N,Y,39.3487814,-76.5632951
MLS Listing,,Townhouse,1932 Lanvale St W,Baltimore,MD,21217,5000,3,1.0,Midtown/edmondson,,,1920,5,,,Active,,,http://www.redfin.com/MD/Baltimore/1932-W-Lanvale-St-21217/home/10928586,MRIS,BA10228697,N,Y,39.2977011,-76.6485924
MLS Listing,,Condo/Co-op,1200 Steuart St #331,Baltimore,MD,21230,300000,1,1.5,Silo Point,1507,,2010,5,199,620,Active,,,http://www.redfin.com/MD/Baltimore/1200-Steuart-St-21230/unit-331/home/23456650,MRIS,BA10228696,N,Y,39.2697734,-76.5886798
MLS Listing,,Townhouse,2529 Edmondson Ave,Baltimore,MD,21223,5000,3,1.0,Rosemont Homeowners/tenants,1694,,1920,5,3,,Active,,,http://www.redfin.com/MD/Baltimore/2529-Edmondson-Ave-21223/home/10967963,MRIS,BA10228673,N,Y,39.2944646,-76.6572402
MLS Listing,,Townhouse,1703 Ashburton St,Baltimore,MD,21216,10000,3,1.0,Coppin Heights/ash-co-east,,,1920,5,,,Active,,,http://www.redfin.com/MD/Baltimore/1703-Ashburton-St-21216/home/10888073,MRIS,BA10228652,N,Y,39.3075103,-76.6618575
MLS Listing,,Condo/Co-op,23 Pierside Dr #208,Baltimore,MD,21230,220000,1,1.0,Federal Hill,775,,2005,5,284,553,Active,,,http://www.redfin.com/MD/Baltimore/23-Pierside-Dr-21230/unit-208/home/11223651,MRIS,BA10228591,N,Y,39.2771286,-76.6054421
MLS Listing,,Townhouse,1530 Caroline St N,Baltimore,MD,21213,279000,3,3.5,Oliver,,,1920,5,,,Active,,,http://www.redfin.com/MD/Baltimore/1530-N-Caroline-St-21213/home/10811588,MRIS,BA10228495,N,Y,39.3081025,-76.5983846
MLS Listing,,Townhouse,255 Ellwood Ave S,Baltimore,MD,21224,339000,3,2.5,Patterson Park,1615,,1900,5,210,,Active,,,http://www.redfin.com/MD/Baltimore/255-S-Ellwood-Ave-21224/home/10741117,MRIS,BA10217908,N,Y,39.2888932,-76.5729234
MLS Listing,,Townhouse,2553 Cold Spring Ln W,Baltimore,MD,21215,80000,3,1.5,Baltimore,,,1940,5,,,Active,,,http://www.redfin.com/MD/Baltimore/2553-W-Cold-Spring-Ln-21215/home/10920846,MRIS,BA10228359,N,Y,39.3405783,-76.6641811
MLS Listing,,Townhouse,114 Montgomery St E,Baltimore,MD,21230,639000,3,2.5,Federal Hill,1710,436,1825,5,374,,Active,,,http://www.redfin.com/MD/Baltimore/114-E-Montgomery-St-21230/home/11007960,MRIS,BA10211365,N,Y,39.2802,-76.6119779
MLS Listing,,Single Family Residential,604 Murdock Rd,Baltimore,MD,21212,499900,5,3.5,Anneslie,1598,6250,1928,5,313,,Active,May-13-2018 11:00 AM,May-13-2018 01:00 PM,http://www.redfin.com/MD/Baltimore/604-Murdock-Rd-21212/home/9640963,MRIS,BC10228186,N,Y,39.3770967,-76.6048515
MLS Listing,,Townhouse,3845 Forest Park Ave,Baltimore,MD,21216,59900,3,2.0,Forest Park/ Baltimore City,1800,436,1925,5,33,,Active,,,http://www.redfin.com/MD/Baltimore/3845-W-Forest-Park-Ave-21216/home/10882280,MRIS,BA10228177,N,Y,39.3253906,-76.6833427
MLS Listing,,Townhouse,3514 Bank St,Baltimore,MD,21224,420000,8,4.0,Highlandtown,4560,4480,1920,5,92,,Active,,,http://www.redfin.com/MD/Baltimore/3514-Bank-St-21224/home/11080924,MRIS,BA10228150,N,Y,39.2878201,-76.5676475
MLS Listing,,Townhouse,3128 Lawnview Ave,Baltimore,MD,21213,30900,2,2.0,Baltimore,1280,,1926,5,24,,Active,,,http://www.redfin.com/MD/Baltimore/3128-Lawnview-Ave-21213/home/10801441,MRIS,BA10228080,N,Y,39.3198236,-76.5737875
MLS Listing,,Condo/Co-op,2007 Clipper Park Rd #317,Baltimore,MD,21211,269500,2,2.0,Clipper Mill,1095,,2006,5,246,432,Active,,,http://www.redfin.com/MD/Baltimore/2007-Clipper-Park-Rd-21211/unit-317/home/11891944,MRIS,BA10228021,N,Y,39.331602,-76.644721
MLS Listing,,Townhouse,4644 Walther Ave,Baltimore,MD,21214,160000,3,2.0,Beverly Hills / Waltherson,1582,4182,1935,5,101,,Active,,,http://www.redfin.com/MD/Baltimore/4644-Walther-Ave-21214/home/11121155,MRIS,BA10223899,N,Y,39.3409221,-76.5653333
MLS Listing,,Townhouse,4248 Nicholas Ave,Baltimore,MD,21206,89900,3,2.0,Baltimore,1038,,1929,5,87,,Active,,,http://www.redfin.com/MD/Baltimore/4248-Nicholas-Ave-21206/home/11114494,MRIS,BA10224725,N,Y,39.3283622,-76.5627187
MLS Listing,,Townhouse,507 S Belnord Ave,Baltimore,MD,21224,300000,2,1.5,Canton,1008,720,1910,5,298,,Active,,,http://www.redfin.com/MD/Baltimore/507-S-Belnord-Ave-21224/home/10737447,MRIS,BA10224997,N,Y,39.2857902,-76.5777316
MLS Listing,,Townhouse,1000 Paca St,Baltimore,MD,21230,299000,3,2.5,Washington Village,2210,2,1900,5,135,,Active,,,http://www.redfin.com/MD/Baltimore/1000-S-Paca-St-21230/home/11003285,MRIS,BA10224082,N,Y,39.2805027,-76.6268193
MLS Listing,,Single Family Residential,3600 Plateau Ave,Baltimore,MD,21207,199999,5,3.0,Baltimore City,1838,6403,1923,5,109,,Active,,,http://www.redfin.com/MD/Baltimore/3600-Plateau-Ave-21207/home/11214930,MRIS,BA10220978,N,Y,39.3331286,-76.699581
MLS Listing,,Townhouse,204 Patterson Park Ave N,Baltimore,MD,21231,279900,2,3.0,Baltimore City,2000,,1910,5,140,,Active,,,http://www.redfin.com/MD/Baltimore/204-N-Patterson-Park-Ave-21231/home/10756696,MRIS,BA10225891,N,Y,39.294484,-76.585119
MLS Listing,,Single Family Residential,3609 White Ave,Baltimore,MD,21206,199000,4,3.0,Baltimore,1152,11400,1953,5,173,,Active,,,http://www.redfin.com/MD/Baltimore/3609-White-Ave-21206/home/11124429,MRIS,BA10209367,N,Y,39.3494563,-76.5501214
MLS Listing,,Townhouse,1609 Marshall St,Baltimore,MD,21230,289900,2,2.0,Federal Hill,1194,,1900,6,243,,Active,,,http://www.redfin.com/MD/Baltimore/1609-Marshall-St-21230/home/11013260,MRIS,BA10227982,N,Y,39.2712096,-76.6122341
MLS Listing,,Townhouse,716 34th St,Baltimore,MD,21211,329000,3,1.5,Hampden,1480,,1880,6,222,,Active,,,http://www.redfin.com/MD/Baltimore/716-W-34th-St-21211/home/10871980,MRIS,BA10227937,N,Y,39.328939,-76.62846
MLS Listing,,Townhouse,12 Highland Ave N,Baltimore,MD,21224,95000,4,2.0,Patterson Park/highlandtown,1316,,1920,6,72,,Active,,,http://www.redfin.com/MD/Baltimore/12-N-Highland-Ave-21224/home/11085777,MRIS,BA10227835,N,Y,39.2931593,-76.5697178
MLS Listing,,Single Family Residential,4312 Leeds Ave,Baltimore,MD,21229,329000,4,2.5,Arbutus,2352,138521,1910,6,140,,Active,,,http://www.redfin.com/MD/Baltimore/4312-Leeds-Ave-21229/home/9366174,MRIS,BC10227830,N,Y,39.261906,-76.689064
MLS Listing,,Single Family Residential,3602 Howard Park Ave,Baltimore,MD,21207,210000,3,2.0,Howard Park,1972,6247,1925,6,106,,Active,,,http://www.redfin.com/MD/Baltimore/3602-Howard-Park-Ave-21207/home/11214924,MRIS,BA10227810,N,Y,39.3330694,-76.6983389
MLS Listing,,Townhouse,3630 Rexmere Rd,Baltimore,MD,21218,168500,3,1.5,Ednor Gardens,1360,1950,1930,6,124,,Active,,,http://www.redfin.com/MD/Baltimore/3630-Rexmere-Rd-21218/home/10824714,MRIS,BA10227769,N,Y,39.3329223,-76.6022214
MLS Listing,,Single Family Residential,3823 Menlo Dr,Baltimore,MD,21215,265000,3,2.5,Upper Park Heights,1772,10258,1939,6,150,,Active,,,http://www.redfin.com/MD/Baltimore/3823-Menlo-Dr-21215/home/11182473,MRIS,BA10227750,N,Y,39.3534068,-76.6941938
MLS Listing,,Townhouse,6729 Boston Ave,Baltimore,MD,21222,135000,4,2.0,Graceland Park,1200,,1951,6,113,,Active,,,http://www.redfin.com/MD/Baltimore/6729-Boston-Ave-21222/home/11063399,MRIS,BA10227681,N,Y,39.279748,-76.53101
MLS Listing,,Single Family Residential,3905 Chatham Rd NW,Baltimore,MD,21207,72000,5,2.5,Forest Park,2165,7000,1909,6,33,,Active,,,http://www.redfin.com/MD/Baltimore/3905-Chatham-Rd-21207/home/10902201,MRIS,BA10227649,N,Y,39.3302065,-76.6837202
MLS Listing,,Townhouse,806 33rd St W,Baltimore,MD,21211,269900,3,1.5,Hampden,1848,,1900,6,146,,Active,,,http://www.redfin.com/MD/Baltimore/806-W-33rd-St-21211/home/10870568,MRIS,BA10227626,N,Y,39.327225,-76.629547
MLS Listing,,Townhouse,836 Dumbarton Ave,Baltimore,MD,21218,72500,2,3.0,"Pen Lucy, Penn Lucy",840,,1948,6,86,,Active,,,http://www.redfin.com/MD/Baltimore/836-Dumbarton-Ave-21218/home/10804228,MRIS,BA10227588,N,Y,39.3383894,-76.6031153
MLS Listing,,Condo/Co-op,2515 Boston St #506,Baltimore,MD,21224,419900,2,2.0,Canton,1307,,1987,6,321,511,Active,,,http://www.redfin.com/MD/Baltimore/2515-Boston-St-21224/unit-506/home/10730135,MRIS,BA10227598,N,Y,39.2801747,-76.5805646
MLS Listing,,Townhouse,131 Luzerne Ave N,Baltimore,MD,21224,234900,3,2.5,Patterson Park,2066,,1900,6,114,,Active,,,http://www.redfin.com/MD/Baltimore/131-N-Luzerne-Ave-21224/home/10760380,MRIS,BA10227570,N,Y,39.2938565,-76.5803375
MLS Listing,,Townhouse,5908 Hillen Rd,Baltimore,MD,21239,165000,3,2.0,Baltimore City,1824,,1951,6,90,,Active,,,http://www.redfin.com/MD/Baltimore/5908-Hillen-Rd-21239/home/11206782,MRIS,BA10216950,N,Y,39.3604778,-76.5814572
MLS Listing,,Townhouse,5405 Bucknell Rd,Baltimore,MD,21206,109000,3,1.0,Cedonia,1152,,1959,6,95,,Active,,,http://www.redfin.com/MD/Baltimore/5405-Bucknell-Rd-21206/home/11117289,MRIS,BA10227518,N,Y,39.3310869,-76.53388
MLS Listing,,Single Family Residential,3026 Overland Ave,Baltimore,MD,21214,154900,4,2.0,Beverly Hills,1675,6268,1926,6,92,,Active,,,http://www.redfin.com/MD/Baltimore/3026-Overland-Ave-21214/home/11119964,MRIS,BA10227496,N,Y,39.3384601,-76.5716931
MLS Listing,,Townhouse,107 Linwood Ave N,Baltimore,MD,21224,189900,2,2.5,Patterson Park,1472,3920,1920,6,129,,Active,,,http://www.redfin.com/MD/Baltimore/107-N-Linwood-Ave-21224/home/10762337,MRIS,BA10206675,N,Y,39.2935828,-76.5760605
MLS Listing,,Single Family Residential,3504 Marmon Ave,Baltimore,MD,21207,249000,5,4.0,Gwynn Oak,2389,6750,1925,6,104,,Active,,,http://www.redfin.com/MD/Baltimore/3504-Marmon-Ave-21207/home/11215725,MRIS,BA10227475,N,Y,39.3333841,-76.703505
MLS Listing,,Condo/Co-op,1000 Fell St #616,Baltimore,MD,21231,850000,2,2.0,Fells Point,2318,,1900,6,367,1193,Active,,,http://www.redfin.com/MD/Baltimore/1000-Fell-St-21231/unit-616/home/25790142,MRIS,BA10227464,N,Y,39.2799135,-76.5896277
MLS Listing,,Townhouse,807 Hanover St S,Baltimore,MD,21230,317500,4,2.5,Federal Hill,1590,436,1900,6,200,,Active,,,http://www.redfin.com/MD/Baltimore/807-S-Hanover-St-21230/home/11007340,MRIS,BA10227417,N,Y,39.2795861,-76.6155365
MLS Listing,,Townhouse,2410 Westwood Ave,Baltimore,MD,21216,5000,3,2.0,Coppin Heights/ Ash-co-east,,,1920,6,,,Active,,,http://www.redfin.com/MD/Baltimore/2410-Westwood-Ave-21216/home/10890245,MRIS,BA10227390,N,Y,39.308686,-76.65658
MLS Listing,,Single Family Residential,3822 Ridgewood Ave,Baltimore,MD,21215,224900,3,2.0,Arlington,2112,8099,1927,6,106,,Active,,,http://www.redfin.com/MD/Baltimore/3822-Ridgewood-Ave-21215/home/10881659,MRIS,BA10227374,N,Y,39.3370107,-76.6808616
MLS Listing,,Single Family Residential,3608 Bayonne Ave,Baltimore,MD,21206,149900,2,1.5,Hamilton,810,7423,1952,6,185,,Active,,,http://www.redfin.com/MD/Baltimore/3608-Bayonne-Ave-21206/home/11124452,MRIS,BA10227342,N,Y,39.3488579,-76.5506181
MLS Listing,,Single Family Residential,5816 Winner Ave,Baltimore,MD,21215,190000,2,2.0,,1425,5998,1922,6,133,,Active,,,http://www.redfin.com/MD/Baltimore/5816-Winner-Ave-21215/home/11179090,MRIS,BA10227323,N,Y,39.3577072,-76.682494
MLS Listing,,Condo/Co-op,221 Ridgemede Rd #102,Baltimore,MD,21210,159900,2,1.5,Tuscany Canterbury,1209,,1920,6,132,768,Active,,,http://www.redfin.com/MD/Baltimore/221-Ridgemede-Rd-21210/unit-102/home/10837500,MRIS,BA10227265,N,Y,39.339033,-76.62511
MLS Listing,,Townhouse,121 Warren Ave,Baltimore,MD,21230,389900,3,2.0,Federal Hill,1434,,1850,6,272,,Active,,,http://www.redfin.com/MD/Baltimore/121-Warren-Ave-21230/home/11015562,MRIS,BA10227198,N,Y,39.2787413,-76.6118806
MLS Listing,,Townhouse,104 Pilgrim Lndg,Baltimore,MD,21230,415000,3,2.5,Federal Hill,1800,1307,2004,6,231,80,Active,,,http://www.redfin.com/MD/Baltimore/104-Pilgrim-Lndg-21230/home/11222069,MRIS,BA10227173,N,Y,39.2750555,-76.6113825
MLS Listing,,Single Family Residential,5709 Newholme Ave,Baltimore,MD,21206,170000,3,2.0,Hamilton Area,1215,7632,1952,6,140,,Active,,,http://www.redfin.com/MD/Baltimore/5709-Newholme-Ave-21206/home/11094086,MRIS,BA10227139,N,Y,39.3375043,-76.5376779
MLS Listing,,Townhouse,1220 Curley St N,Baltimore,MD,21213,55000,2,1.0,East Baltimore,950,,1927,6,58,,Active,,,http://www.redfin.com/MD/Baltimore/1220-N-Curley-St-21213/home/10798757,MRIS,BA10227083,N,Y,39.3055065,-76.5765292
MLS Listing,,Townhouse,3200 O'donnell St,Baltimore,MD,21224,699000,5,3.5,Canton,3825,,1920,6,183,,Active,,,http://www.redfin.com/MD/Baltimore/3200-O-Donnell-St-21224/home/11070378,MRIS,BA10227063,N,Y,39.280544,-76.5709604
MLS Listing,,Townhouse,3439 Ravenwood Ave,Baltimore,MD,21213,15000,3,1.0,Four By Four,932,,1925,6,16,,Active,,,http://www.redfin.com/MD/Baltimore/3439-Ravenwood-Ave-21213/home/10802963,MRIS,BA10227049,N,Y,39.3151703,-76.5746346
MLS Listing,,Townhouse,22 Ashburton St N,Baltimore,MD,21223,65500,3,1.0,Baltimore,,,1915,6,,,Active,,,http://www.redfin.com/MD/Baltimore/22-Ashburton-St-21223/home/10976139,MRIS,BA10227033,N,Y,39.2884651,-76.6612143
MLS Listing,,Townhouse,1710 Broadway N,Baltimore,MD,21213,110000,5,2.0,Oliver,,,1913,6,,,Active,,,http://www.redfin.com/MD/Baltimore/1710-N-Broadway-21213/home/10782741,MRIS,BA10226994,N,Y,39.3098892,-76.595379
MLS Listing,,Townhouse,1747 Aliceanna St,Baltimore,MD,21231,1200000,3,3.5,Fells Point,2754,1220,2011,6,436,,Active,,,http://www.redfin.com/MD/Baltimore/1747-Aliceanna-St-21231/home/39593246,MRIS,BA10226976,N,Y,39.2834188,-76.5914595
MLS Listing,,Townhouse,811 Fort Ave E,Baltimore,MD,21230,359900,2,2.5,Locust Point,1547,845,1919,6,233,,Active,,,http://www.redfin.com/MD/Baltimore/811-E-Fort-Ave-21230/home/11022058,MRIS,BA10226971,N,Y,39.271842,-76.6024471
MLS Listing,,Townhouse,2431 Eutaw Pl,Baltimore,MD,21217,375000,4,3.5,Reservoir Hill,2976,,1921,6,126,,Active,May-9-2018 11:30 AM,May-9-2018 01:00 PM,http://www.redfin.com/MD/Baltimore/2431-Eutaw-Pl-21217/home/10867633,MRIS,BA10222838,N,Y,39.314278,-76.637351
MLS Listing,,Townhouse,2526 Boyd St,Baltimore,MD,21223,5000,3,1.0,Shipley Hill,,,1900,6,,,Active,,,http://www.redfin.com/MD/Baltimore/2526-Boyd-St-21223/home/10974454,MRIS,BA10226963,N,Y,39.286319,-76.657227
MLS Listing,,Single Family Residential,4004 Fleetwood Ave,Baltimore,MD,21206,199900,3,3.5,Overlea,1488,10873,1900,6,134,,Active,,,http://www.redfin.com/MD/Baltimore/4004-Fleetwood-Ave-21206/home/11140252,MRIS,BA10226948,N,Y,39.3563978,-76.5320422
MLS Listing,,Townhouse,212 Payson St S,Baltimore,MD,21223,10000,3,1.0,Carrollton Ridge,,,1900,6,,,Active,,,http://www.redfin.com/MD/Baltimore/212-S-Payson-St-21223/home/10980707,MRIS,BA10226914,N,Y,39.284474,-76.648697
MLS Listing,,Townhouse,1942 Light St,Baltimore,MD,21230,260000,2,2.5,Federal Hill,1166,885,1900,6,223,,Active,,,http://www.redfin.com/MD/Baltimore/1942-Light-St-21230/home/11012816,MRIS,BA10222483,N,Y,39.267563,-76.612294
MLS Listing,,Condo/Co-op,3041 Fallstaff Rd Unit 303D,Baltimore,MD,21209,144900,2,2.0,The Towers,1673,,1988,6,87,668,Active,,,http://www.redfin.com/MD/Baltimore/3041-Fallstaff-Rd-21209/unit-303D/home/11176394,MRIS,BA10226894,N,Y,39.3682091,-76.6918906
MLS Listing,,Townhouse,3307 Westerwald Ave,Baltimore,MD,21218,59900,3,1.0,Waverly,1236,,1924,6,48,,Active,,,http://www.redfin.com/MD/Baltimore/3307-Westerwald-Ave-21218/home/10805725,MRIS,BA10226821,N,Y,39.3290393,-76.6047717
MLS Listing,,Townhouse,115 27th St W,Baltimore,MD,21218,248950,2,1.5,Charles Village,1080,1080,1920,6,231,,Active,,,http://www.redfin.com/MD/Baltimore/115-W-27th-St-21218/home/10840948,MRIS,BA10226813,N,Y,39.3203746,-76.6194169
MLS Listing,,Townhouse,128 East Ave,Baltimore,MD,21224,88700,3,1.0,Patterson Park,1428,,1920,6,62,,Active,,,http://www.redfin.com/MD/Baltimore/128-South-East-Ave-21224/home/10741022,MRIS,BA10226798,N,Y,39.2905803,-76.5720196
MLS Listing,,Townhouse,640 Payson St S,Baltimore,MD,21223,5000,3,1.0,Carrollton Ridge,,,1920,6,,,Active,,,http://www.redfin.com/MD/Baltimore/640-S-Payson-St-21223/home/10982797,MRIS,BA10226756,N,Y,39.27995,-76.6470191
MLS Listing,,Condo/Co-op,1 University Pkwy E #710,Baltimore,MD,21218,79900,2,1.0,Guilford,888,,1965,6,90,711,Active,,,http://www.redfin.com/MD/Baltimore/1-E-University-Pkwy-21218/unit-710/home/10854086,MRIS,BA10218061,N,Y,39.3313784,-76.6169047
MLS Listing,,Single Family Residential,1012 Overbrook Rd,Idlewylde,MD,21239,400000,3,2.5,Idlewylde,1402,7248,1928,6,285,,Active,,,http://www.redfin.com/MD/Baltimore/1012-Overbrook-Rd-21239/home/9634300,MRIS,BC10218235,N,Y,39.3734135,-76.5914017
MLS Listing,,Townhouse,1512 Holbrook St,Baltimore,MD,21202,40000,3,1.0,000,,,1920,6,,,Active,,,http://www.redfin.com/MD/Baltimore/1512-Holbrook-St-21202/home/10810848,MRIS,BA10218054,N,Y,39.3074627,-76.6033047
MLS Listing,,Townhouse,302 Camillia Pl,Baltimore,MD,21229,222000,3,3.0,Uplands,1550,436,2016,6,143,75,Active,,,http://www.redfin.com/MD/Baltimore/302-Camillia-Pl-21229/home/113105310,MRIS,BA10226530,N,Y,39.2893575,-76.6900452
MLS Listing,,Townhouse,1409 Richardson St,Baltimore,MD,21230,479900,3,3.5,Locust Point,2250,1002,2007,6,213,,Active,,,http://www.redfin.com/MD/Baltimore/1409-Richardson-St-21230/home/12108109,MRIS,BA10225981,N,Y,39.2692751,-76.5909294
MLS Listing,,Single Family Residential,700 Melrose Ave W,Baltimore,MD,21210,525000,3,2.5,North Roland Park,1936,7509,1939,6,271,,Active,,,http://www.redfin.com/MD/Baltimore/700-W-Melrose-Ave-21210/home/11161455,MRIS,BA10224357,N,Y,39.3657227,-76.6326747
MLS Listing,,Condo/Co-op,511 Bond St #302,Baltimore,MD,21231,139000,1,1.0,Fells Point,681,,2006,7,204,365,Active,,,http://www.redfin.com/MD/Baltimore/511-S-Bond-St-21231/unit-302/home/12547044,MRIS,BA10210939,N,Y,39.2849269,-76.595019
MLS Listing,,Townhouse,566 47th St,Baltimore,MD,21224,130000,3,1.0,Harbor View,1024,2600,1952,7,127,,Active,,,http://www.redfin.com/MD/Baltimore/566-47th-St-21224/home/9345953,MRIS,BC10226149,N,Y,39.286271,-76.52652
